Uke,År,Lokalitetsnummer,Lokalitetsnavn,Voksne hunnlus,Lus i bevegelige stadier,Fastsittende lus,Kommune,Lat,Lon,Sjøtemperatur
42,2017,33437,ÅDNAHOLMEN,,,,FINNØY,59.27807,5.777617,
42,2017,30196,ÅDNEKVAMME,,,,MASFJORDEN,60.83117,5.353233,
42,2017,35297,ÅDNØY SØ,,,,SANDNES,58.91455,6.028583,
42,2017,30977,ÆSØYA,,,,VESTVÅGØY,68.10487,13.79007,
42,2017,15196,AGA Ø,0,0.58,0.1,BØMLO,59.8451,5.261367,13.1
42,2017,10331,ÅKRE,0.16,1.15,0.02,KVINNHERAD,60.11243,6.042483,13
42,2017,12067,ALDALEN,0.19,0.33,0,OS I HORDALAND,60.24995,5.571917,10
42,2017,12982,ALDEØYNA,0.45,2.25,0.12,ASKVOLL,61.31025,4.76905,13.2
42,2017,10298,ÅLFORO,0.2,1.45,0.02,FITJAR,59.8665,5.244133,12.5
42,2017,11756,ALLERSHOLMEN,,,,AUSTRHEIM,60.77465,4.8536,
42,2017,13271,ALMURDEN,,,,FLATANGER,64.43324,10.68095,
42,2017,12086,ALSÅKERVIK,0,0.04,0,KVINNHERAD,59.7601,6.074183,14.4
42,2017,11416,ALSVÅG,,,,ØKSNES,68.9027,15.28675,
42,2017,13227,ALTANESET,0.05,0.19,0,FUSA,60.24712,5.63475,13.5
42,2017,11179,ALTEROSEN,,,,VÅGAN,68.20737,14.44687,10
42,2017,10319,ÅLVORA,,,,FLORA,61.58403,5.133633,
42,2017,11330,ÅMUNDSVIKA,0.37,1.13,0.12,GRATANGEN,68.72655,17.34348,9.9
42,2017,11513,ANDAL,0.16,0.83,0.12,BØMLO,59.63633,5.247717,13
42,2017,33457,ÅNDERBAKK,,,,STEIGEN,67.75468,15.70438,
42,2017,11339,ÅNDERKLEIVA,0.02,0.05,0.01,IBESTAD,68.92402,17.14982,10
42,2017,32277,ANDHOLMEN 1,0.33,0.95,0.02,SMØLA,63.46978,7.8556,12.3
42,2017,32297,ANDHOLMEN 2,0.3,0.76,0,SMØLA,63.46745,7.847167,12.2
42,2017,33257,ANDREGGRUNNEN,,,,FINNØY,59.23888,5.740617,
42,2017,30156,ANEVIK,0.08,0.11,0,STEIGEN,68.00592,15.26433,10.7
42,2017,13563,ANGELSKÅR,,,,OSTERØY,60.52442,5.3568,
42,2017,13518,ANGSTAUREN,,,,TROMSØ,69.69534,18.17027,
42,2017,32017,ÅNHOLMEN,0.03,0.06,0.03,FOSNES,64.7198,11.46168,10.8
42,2017,11793,ÅNNAHOLMANE,0.17,0.25,0.18,ASKVOLL,61.28427,4.725433,12.9
42,2017,29816,APALVIKNESET,0.45,0.98,0.2,JONDAL,60.14622,6.121133,13.05
42,2017,29416,ÅPENVIK,0.04,0.1,0.02,UNJARGGA-NESSEBY,70.02058,29.21533,6.4
42,2017,12085,APLAVIKA,0.02,0.07,0.02,KVAM,60.25865,6.055333,12.3
42,2017,11364,ÅRBERG,0.43,0.62,0.37,TORSKEN,69.1959,16.91595,10.7
42,2017,24695,ÅRNES,0,0.01,0,NAMSOS,64.5961,11.27342,11
42,2017,11119,ARNØYSUNDET,,,,GILDESKÅL,67.14978,13.991,
42,2017,10735,ÅRØYA,0.02,0.01,0.12,LYNGEN,69.66327,20.31492,9.4
42,2017,35797,ÅRSETFJORDEN,,,,NÆRØY,65.00819,11.74642,
42,2017,12668,ASTRIDHOLMEN,,,,NÆRØY,64.80798,11.54258,
42,2017,20496,ATLATVEIT,,,,FINNØY,59.22773,5.984233,
42,2017,14016,AUENES,,,,LILLESAND,58.14027,8.2553,14.4
42,2017,32077,AUKAN,,,,AURE,63.16227,8.309633,
42,2017,13254,AUKAN,0,0.2,0,AVERØY,63.0603,7.594283,12.1
42,2017,12988,AUKRASANDEN,0.45,0.95,0.05,AUKRA,62.78342,6.92605,12.83
42,2017,10870,AUNHOLMEN Ø,,,,VEVELSTAD,65.7061,12.62273,
42,2017,12357,AURSØYSVA,,,,FRØYA,63.80197,8.910767,
42,2017,10275,AUSKARNES Ø,,,,LOPPA,70.14145,22.3542,
42,2017,11800,AUSTNESTÅA,0.02,0.12,0.02,FLORA,61.49082,5.171167,12.43
42,2017,26795,AUSTVIKA,0,0.01,0.01,FLATANGER,64.41853,10.69603,11.86
42,2017,13572,BADSTUVIKA,0.03,0.1,0.07,HITRA,63.53398,9.1469,12.1
42,2017,12730,BÅFJORDEN,,,,NÆRØY,64.94988,11.5733,
42,2017,29016,BÅFJORDSTRANDA,,,,NÆRØY,64.96465,11.59273,
42,2017,13341,BAKJESTRANDA,,,,BREMANGER,61.81998,4.940183,
42,2017,19395,BAKKA,,,,KVAM,60.23498,6.006217,
42,2017,32537,BALTSFJORD,0.08,0.05,1.58,LENVIK,69.5463,17.7697,10.6
42,2017,13305,BARBOGEN,,,,TORSKEN,69.36843,17.0281,
42,2017,13873,BARLINGEBOTTEN,,,,MASFJORDEN,60.86308,5.364017,
42,2017,11749,BÅRØY,0.34,1.29,0.27,GULEN,60.94587,4.845383,13.8
42,2017,31877,BARØYA,,,,NAMSOS,64.62117,11.23413,
42,2017,10862,BÅSEN,,,,BINDAL,65.11767,12.32147,11.3
42,2017,18235,BASTLI,,,,HJELMELAND,59.2694,6.193083,
42,2017,13845,BEITVEIT,0.48,0.74,0.03,SELJE,62.14122,5.32675,13.37
42,2017,25055,BEKKSNESET,0,0.55,0.26,HYLLESTAD,61.07662,5.38595,12.54
42,2017,12095,BERGADALEN,0.04,1.1,0.11,KVAM,60.1216,5.908883,12.4
42,2017,20396,BERGSNES V,0,0.08,0,ALTA,70.22971,23.33612,8
42,2017,30397,BERGSØY,0,0.01,0.01,STEIGEN,67.897,15.15785,11.4
42,2017,13872,BERGSVIK,,,,MASFJORDEN,60.86295,5.3474,
42,2017,11241,BERGVIKODDEN,,,,HADSEL,68.57475,14.85088,
42,2017,11930,BJELKAVIK,0.14,0.46,0.07,SULDAL,59.45165,5.991917,12.7
42,2017,12178,BJØNNSPJOTNESET,0.01,0.08,0.03,HØYANGER,61.09808,5.82545,13.7
42,2017,31738,BJØRGA,,,,SØRREISA,69.15398,17.94842,
42,2017,12625,BJØRGAN,1.35,2.95,0.2,FLATANGER,64.59268,10.90833,12.1
42,2017,31317,BJØRKVIK,,,,TYSFJORD,68.02925,16.13142,
42,2017,22455,BJØRLYKKESTRANDA,0,0.04,0.13,VANYLVEN,62.16655,5.5954,13.2
42,2017,12308,BJØRNDAL,0.05,0.96,0.19,ØRSTA,62.27488,6.00285,13.2
42,2017,23436,BJØRNHOLMEN,0,0.12,0.42,SOLUND,61.20635,4.938083,13.9
42,2017,34997,BJØRNØYA,0.05,0.73,0.21,BODØ,67.4164,14.42867,12
42,2017,11340,BJØRNSTEIN,,,,IBESTAD,68.89236,17.11023,
42,2017,29458,BLÅMANNSVIK,,,,TROMSØ,69.73064,18.65358,
42,2017,19255,BLÅSENBORGNESET,,,,SØR-VARANGER,69.73305,30.1079,
42,2017,12156,BLOM,,,,OSTERØY,60.43658,5.564833,
42,2017,31857,BLOMSØRÅSA,,,,ALSTAHAUG,65.85637,12.31183,
42,2017,24915,BØBUKTA,,,,VEGA,65.66164,12.08392,
42,2017,11399,BOGELVA,,,,KVÆFJORD,68.6565,15.90035,
42,2017,10212,BOGEN,0.18,0.25,0,KRISTIANSUND,63.07767,7.90345,13.3
42,2017,12252,BOGEN MD,,,,MIDSUND,62.69082,6.868767,
42,2017,13209,BOGNØY,0.02,0.02,0.05,RADØY,60.60407,5.076983,13.1
42,2017,13284,BOLLHAUGEN,0.38,1,0.05,DØNNA,66.11311,12.48768,11.21
42,2017,13143,BONDEJORDA,0.12,0.18,2.23,LEBESBY,70.81695,27.56372,7.9
42,2017,10256,BONDØYA,0.09,0.35,0.3,VIKNA,64.8168,10.7427,10.9
42,2017,11248,BONHAMMAREN,0.35,0.37,0.07,BØ I NORDLAND,68.81738,14.7101,11
42,2017,11754,BØØY,,,,RADØY,60.72788,4.8641,
42,2017,37237,BØRFJORD,,,,HASVIK,70.64533,22.69432,
42,2017,15796,BORGARLIFLOT,0.07,0.15,0.28,SULDAL,59.3892,5.924733,12.4
42,2017,20876,BØRØYA,,,,ØKSNES,68.84438,14.85463,
42,2017,11230,BØRØYA SLAKTEMERD,,,,HADSEL,68.57418,14.95887,
42,2017,36417,BORVIKA,,,,HAMMERFEST,70.75667,23.4353,
42,2017,12040,BRANDASKUTA,0.2,0.9,0,KVINNHERAD,59.97573,5.909183,12.87
42,2017,34897,BRANDSFJORDEN,0,0.23,0.04,ROAN,64.22307,10.27993,11
42,2017,11488,BRATTAVIKA,0.03,0.43,0.05,AUSTEVOLL,60.04412,5.303317,13.3
42,2017,33137,BRATTBERG,,,,GRATANGEN,68.7131,17.4296,
42,2017,11015,BRATTHOLMEN,0.02,0.11,0.02,HERØY I NORDLAND,65.90735,12.22097,10.53
42,2017,13205,BRATTHOLMEN,0.03,0.83,0.33,SOLUND,61.06838,4.713817,12.66
42,2017,37157,BRATTVIKA II,,,,FLATANGER,64.38605,10.81572,
42,2017,12594,BREIDVIKA,,,,OSEN,64.29536,10.39748,
42,2017,11574,BREIVIK S,0,2.7,1.35,BØMLO,59.67118,5.31215,13.2
42,2017,15621,BREIVIKA,,,,RØDØY,66.58036,13.01564,
42,2017,28336,BREIVIKA,0,0.21,0.05,DØNNA,66.1609,12.68147,10.83
42,2017,32897,BREIVIKA S,0.01,0.13,0.01,DØNNA,66.1581,12.68202,10.83
42,2017,13765,BREIVIKEN,0.05,0.9,0.35,LURØY,66.46165,12.95803,11.5
42,2017,33237,BREIVOLL,,,,IBESTAD,68.75851,17.15258,
42,2017,36118,BREMNESØYA,0.18,0.26,0.02,SORTLAND,68.82377,15.40022,10.2
42,2017,10223,BREMNESSVAET,,,,SMØLA,63.39795,8.214317,12.84
42,2017,10674,BRENNELVBUKT,,,,UNJARGGA-NESSEBY,70.01514,29.2673,
42,2017,33637,BRENNEVINSGRUNNEN,,,,FINNØY,59.1833,5.66115,
42,2017,34197,BRENNHOLMEN,,,,HERØY I NORDLAND,65.97871,12.16355,
42,2017,37357,BRENSHOLMEN,,,,TROMSØ,69.57837,17.99427,
42,2017,12466,BRETTINGEN,0.27,0.48,0.02,SMØLA,63.3582,8.237267,12.57
42,2017,35677,BROTTØY,,,,HADSEL,68.4885,15.12592,
42,2017,12237,BRUDEVIKA,0.22,0.55,0,VANYLVEN,62.11657,5.420717,13.2
42,2017,13841,BRUNSVIK,0,0.39,0.03,VÅGSØY,61.91018,5.29085,12.5
42,2017,11435,BRYGGELANDSHOLMANE,0,0,0,HAUGESUND,59.42902,5.096417,13.2
42,2017,31038,BUARØY,0.17,0.34,0.01,SUND,60.22007,5.21455,12
42,2017,33537,BUHOLMEN,0,0.06,0.01,ROAN,64.1569,10.00892,11.8
42,2017,11543,BUHOLMEN,0.19,1.36,0.19,AUSTEVOLL,60.02092,5.081517,12.8
42,2017,11721,BUKKEHOLMEN,,,,SOLUND,61.09827,4.90485,
42,2017,27976,BUKKHOLMEN,,,,ALSTAHAUG,65.9184,12.24468,
42,2017,12361,BUKKHOLMEN S,,,,FRØYA,63.72368,8.8631,
42,2017,11087,BUKKØYA Ø,0.05,0.22,0.01,RØDØY,66.64097,12.99458,10.7
42,2017,11857,BUKSEVIKA,0,0.05,0.02,FLEKKEFJORD,58.2074,6.63505,14.04
42,2017,22035,BUKTODDEN NØ,0.13,0.16,0,RANA,66.30817,13.43233,10.5
42,2017,11162,BULLATHOLMEN,,,,HADSEL,68.43512,14.84808,
42,2017,12267,BYTTINGSNESET,,,,SKODJE,62.4437,6.566017,
42,2017,37217,DALE,,,,HARSTAD,68.92503,16.3452,
42,2017,12007,DALE II,0,0,0.03,RENNESØY,59.08215,5.71055,12.8
42,2017,32497,DALJORDA,0,0,0,SORTLAND,68.697,14.96338,10.1
42,2017,32457,DALSVÅG NV,,,,KARMØY,59.41082,5.21725,
42,2017,31137,DANIELSNES,0,0.01,0,LOPPA,70.19172,22.32102,9.4
42,2017,35957,DANIELSVIKA,0.12,0.16,0.94,KVALSUND,70.67102,24.48723,7.6
42,2017,15455,DAUMANNSVIKA,,,,SALTDAL,67.17802,15.40938,8.8
42,2017,37557,DAVATLUFT,0,0.05,0.38,ALTA,70.24665,22.88747,9.1
42,2017,10757,DÅVØYA,0.13,0.15,0.9,KARLSØY,70.0722,19.34107,10.3
42,2017,11076,DIGERMULEN,0,0,0,RØDØY,66.67648,13.31687,10.71
42,2017,12659,DIGERNESET,,,,NÆRØY,64.78657,11.72792,
42,2017,13229,DJUPEDALEN,,,,FUSA,60.23087,5.6733,
42,2017,21336,DJUPELEGET,0.2,0.4,0.39,HØYANGER,61.16942,5.807467,12.97
42,2017,14799,DJUPESTALLEN,0,0,0,TYSNES,60.05873,5.453,12.8
42,2017,10338,DJUPEVIK,,,,KVAM,60.4075,6.356717,
42,2017,10110,DJUPEVIK,,,,FINNØY,59.1474,5.863783,12.82
42,2017,26595,DJUPEVIKA,0.06,0.46,0.05,TYSNES,60.03582,5.342217,13.1
42,2017,20455,DJUPEVIKA,,,,KVINNHERAD,60.0406,6.010917,
42,2017,25135,DJUPEVIKA,,,,FLEKKEFJORD,58.21965,6.652167,
42,2017,11684,DJUPEVIKA I,,,,GULEN,60.96958,5.168283,
42,2017,37177,DJUPTAREN,,,,VIKNA,64.76917,10.62895,
42,2017,33117,DJUPVIK,,,,SORTLAND,68.60053,15.34487,
42,2017,30097,DJUPVIK,0.39,0.31,0.06,RØDØY,66.73299,13.33115,10.9
42,2017,34018,DOLMA N,,,,NÆRØY,65.02533,11.67602,
42,2017,10505,DRAGNES,0,0,0,HADSEL,68.58348,14.70622,10.8
42,2017,36917,DREVFLESA,0,0,0.01,ROAN,64.21093,10.11518,12.1
42,2017,35497,DRØNO,0,0.05,0,AUSTEVOLL,60.08077,5.192033,13.3
42,2017,32197,DRYNA,0.01,0.09,0,MIDSUND,62.6444,6.5568,12.8
42,2017,11644,DUESUND,0.22,1.63,0.73,MASFJORDEN,60.80857,5.295383,10.53
42,2017,35237,DURMÅLSVIKA,,,,LENVIK,69.4328,18.14773,
42,2017,13412,DYPEIDET,0.14,0.18,0.13,ØKSNES,68.82935,14.77602,11
42,2017,11381,DYPINGEN,,,,HARSTAD,68.96087,16.53042,
42,2017,21415,DYRHOLMEN,0.09,0.68,0.08,FINNØY,59.28548,5.8583,12.7
42,2017,32117,DYRHOLMEN Ø,,,,FITJAR,59.9332,5.239467,
42,2017,32157,DYRHOLMEN V,0,0.54,0.16,FITJAR,59.92823,5.230717,14.1
42,2017,12128,DYRNES,,,,KVINNHERAD,59.71765,5.72205,
42,2017,35697,DYRVIKHOLMAN,,,,HITRA,63.47025,8.679067,
42,2017,12033,DYSVIK,,,,KVAM,60.19102,5.967617,
42,2017,13711,DYVIKA,0.38,1.35,0.08,ASKVOLL,61.47858,5.375967,12.87
42,2017,12109,EBNE,0,0.01,0,ETNE,59.71443,5.8238,14.6
42,2017,14041,EDØYA,0,0.08,0.03,HITRA,63.65835,8.694417,12.2
42,2017,12574,EDØYA,,,,VIKNA,64.80267,10.9777,
42,2017,30137,EDØYA II,0,0.05,0,HITRA,63.65805,8.683667,12.2
42,2017,30597,EGGESBØNES,,,,HERØY I MØRE OG ROMSDAL,62.32152,5.655833,
42,2017,19335,EIDEMOLLA,,,,LEBESBY,70.67173,27.13395,
42,2017,15456,EIDESBERGET,,,,HØYANGER,61.10512,5.853883,
42,2017,10045,EIDHOLMEN,,,,AUSTEVOLL,60.08808,5.120633,
42,2017,34717,EIDISHOLMAN,,,,VESTVÅGØY,68.13462,13.86722,
42,2017,10819,EIDSNES,,,,ALTA,70.091,22.75517,
42,2017,13870,EIKEBÆRÅNÆ,,,,LINDÅS,60.56343,5.353017,
42,2017,34817,EIME,,,,KVITSØY,59.0872,5.510417,
42,2017,35877,EITERFJORDEN,,,,NÆRØY,64.97163,11.72393,
42,2017,29537,ELDVIKTAREN,0,0.02,0,FLATANGER,64.45464,10.63072,11.8
42,2017,30917,ELGEN,,,,HARSTAD,68.87695,16.28738,
42,2017,10811,ELVA I ÅRØYSUNDET,0,0,0.05,ALTA,70.1337,23.33038,7
42,2017,33077,ELVENESET,,,,HYLLESTAD,61.206,5.131733,
42,2017,32797,ELVEVIKA NY,,,,MÅSØY,70.9178,25.00625,
42,2017,12236,ENDAL Ø,0.05,2.29,0,BREMANGER,61.9076,5.493317,12.84
42,2017,12879,ENDRESETBUKTA,0.19,0.49,0.02,KRISTIANSUND,63.03018,7.71615,12
42,2017,11363,ENKELTSTEIN,0.06,0.16,0,IBESTAD,68.7276,16.91047,10.1
42,2017,34577,ENKENESET,0.01,0.07,0.14,KVALSUND,70.56365,24.11907,7.6
42,2017,32677,ESPNESTAREN,0,0.12,0.01,FRØYA,63.67802,8.66685,12.9
42,2017,10229,FÆTTEN,,,,HALSA,63.14458,8.459567,
42,2017,37437,FAGERHOLMEN,,,,FRØYA,63.66395,8.603167,
42,2017,24575,FARMANNSØYA,0,0.04,0,ROAN,64.18452,10.1222,11.8
42,2017,31797,FARTØYVIKA,0.03,0.07,0.01,MÅSØY,70.8286,24.45182,7.2
42,2017,12624,FEØYVIKA,,,,FLATANGER,64.56073,10.91895,
42,2017,31157,FIKSNESET,0.08,0.84,0.92,SUND,60.17688,5.124833,13
42,2017,13624,FINNASAND,,,,RENNESØY,59.1037,5.619183,
42,2017,13527,FINNKJERKA,0.17,0.9,0.12,HADSEL,68.33945,15.0358,10.49
42,2017,11353,FINNSTEIN,,,,TORSKEN,69.32917,17.06018,
42,2017,31398,FINNVIK,,,,TROMSØ,69.89297,18.80793,
42,2017,11433,FINNVIKA S,0.12,0.11,0.84,LENVIK,69.50056,17.91902,10
42,2017,14796,FISKEFJORDEN,0.05,0.04,0.04,LØDINGEN,68.52563,16.12367,9.9
42,2017,10803,FJELLBUKT,0.08,0.14,0.82,KVÆNANGEN,69.90455,21.87683,8.29
42,2017,26775,FJØLVÆRET Ø,0.27,0.7,0.19,FRØYA,63.81923,8.636133,13.3
42,2017,32597,FJORDPRAKKEN,0.45,1.6,0.3,SMØLA,63.25652,7.928067,12.8
42,2017,10544,FLAKSTADVÅG,0.17,0.25,0.33,TORSKEN,69.18692,17.01373,10.8
42,2017,22515,FLAKSTADVÅG HAVN,,,,TORSKEN,69.19186,17.03839,
42,2017,11833,FLÅTEGRUNNEN,0.05,0.15,0,FLORA,61.57615,4.807333,12.19
42,2017,36138,FLATØYFJORDEN,,,,ROAN,64.27302,10.24623,
42,2017,25835,FLATØYFLU,0.16,0.71,0.06,AUSTEVOLL,60.15603,5.2315,12.6
42,2017,30176,FLEHAMMER,0.58,0.72,0,STEIGEN,67.7292,15.44432,10.4
42,2017,29296,FLEINA,,,,GILDESKÅL,67.0951,13.87522,
42,2017,13494,FLERENGSTRAND,,,,VIKNA,64.91637,11.25113,
42,2017,12407,FLESA,,,,HITRA,63.645,8.879483,
42,2017,11355,FLESEN,0.04,0.88,0.16,TORSKEN,69.24668,17.02568,10.9
42,2017,25895,FLORNES,,,,TYSNES,59.89098,5.665983,
42,2017,29876,FLOTAREN,0.24,3.59,0.1,FLATANGER,64.52398,10.76167,11.4
42,2017,21335,FLOTENESET,0.48,2.31,0.34,HØYANGER,61.1936,5.801617,12.4
42,2017,21055,FOLDØY Ø,,,,SULDAL,59.33748,5.987767,
42,2017,35597,FOLLESØY,,,,SKJERVØY,69.91572,20.60142,
42,2017,16939,FORNES,,,,LØDINGEN,68.41048,15.43543,
42,2017,33697,FORRAHAMMAREN,0.1,0.42,0,SNILLFJORD,63.35043,9.23325,12.9
42,2017,19278,FORSÅSTORVIKA,0,0.09,0,TYSFJORD,68.17072,16.15323,10.62
42,2017,10880,FORVIK,,,,VEVELSTAD,65.72318,12.4742,
42,2017,11893,FOSSÅ,0.33,1.89,0.21,HJELMELAND,59.2699,6.14295,12.74
42,2017,26935,FROVÅGNESET,,,,TRANØY,69.06865,17.06145,
42,2017,31437,FUGLÅSEN,0.24,0.25,0.01,SMØLA,63.44715,8.167767,12.8
42,2017,19115,FUGLØYA S,0.01,0.09,0,SNILLFJORD,63.46068,9.1444,11.9
42,2017,11736,FUREHOLMEN S,0,0.6,0.5,SOLUND,61.05608,4.867017,13.1
42,2017,22015,FURENESET,0.47,2.97,0.2,SOLUND,61.16562,5.052417,12.76
42,2017,11814,FUREVIKA,,,,FJALER,61.30567,5.071783,
42,2017,13669,FURNESET,0.14,0.39,0,VESTNES,62.6461,7.101183,13.3
42,2017,13058,FUSAVIKA,0.08,0.42,0.02,FUSA,60.20763,5.613817,13.5
42,2017,10747,FUTNES,0.07,0.25,0.03,KARLSØY,69.95137,19.58787,10.5
42,2017,13874,FYLLINGSNES S,,,,LINDÅS,60.5821,5.4001,
42,2017,12891,GAGNAT,,,,GJEMNES,62.93255,8.0981,
42,2017,31297,GAMMELVEGGEN,,,,NARVIK,68.48615,17.33933,
42,2017,11193,GAMSKJÆRAN,,,,VESTVÅGØY,68.11055,13.74305,
42,2017,12078,GANGDAL,0,0,0,JONDAL,60.21593,6.156667,12.27
42,2017,11667,GARDSKRÅNESET,0.25,1.17,0.15,ØYGARDEN,60.5399,4.904617,13.1
42,2017,10317,GARVIK,,,,ASKVOLL,61.32008,4.978967,
42,2017,13021,GAUSTAD,0.06,0.21,0.03,EIDE,62.9839,7.329667,13
42,2017,34217,GAVELN,,,,BRØNNØY,65.51103,12.52398,
42,2017,11198,GEITERØYA I,,,,VESTVÅGØY,68.09026,13.73562,
42,2017,26335,GEITHOLMEN,0.01,0.23,0.08,VIKNA,64.79955,11.02593,11.2
42,2017,31357,GEITRYGGEN,0.02,0.12,0.03,NÆRØY,64.75085,11.18903,10.52
42,2017,34357,GISLØY NØ,,,,ØKSNES,68.97054,15.26478,
42,2017,20897,GISLØY S,,,,ØKSNES,68.94144,15.30745,
42,2017,11530,GISSØYSUNDET S,,,,BØMLO,59.62358,5.160067,
42,2017,24315,GJÆSINGEN,0,0.08,0.02,ÅFJORD,64.11761,9.981417,11.9
42,2017,24196,GJELSØYA,0,0.07,0,HITRA,63.48245,8.27885,13.7
42,2017,13036,GJENGANE,0.04,0.36,0.01,AUSTEVOLL,60.07152,5.306383,13
42,2017,33617,GJERDE,,,,AURE,63.29962,8.4183,
42,2017,25695,GJERDE,,,,ULSTEIN,62.25998,5.929183,
42,2017,10324,GJERDEVIKSFLUA,0,0,0,FUSA,60.22308,5.641167,13.94
42,2017,12714,GJERDINGA,,,,NÆRØY,64.9464,11.4623,
42,2017,13852,GJERMUNDNES,0.41,1.03,0.09,VESTNES,62.6275,7.192817,13.3
42,2017,20276,GJERMUNDNESHOLMENE,,,,VESTNES,62.63468,7.1385,
42,2017,31717,GJERSET V,1.38,1.05,0.13,HARAM,62.53023,6.428783,12.4
42,2017,11365,GJERVIKA,,,,TRANØY,69.05032,16.88727,
42,2017,10754,GLIMBUKTA,,,,KARLSØY,69.83302,19.36147,
42,2017,10734,GOURTESJOUKA,0,0,0.34,GAIVUOTNA-KÅFJORD,69.57835,20.51043,8.8
42,2017,34617,GRÅØYA,,,,SMØLA,63.47635,7.951517,
42,2017,32037,GRASHOLMAN,0.02,0.27,0,LURØY,66.34873,12.77942,11.2
42,2017,11690,GRASHOLMEN,0.02,0.19,0.06,RADØY,60.59577,5.159717,13.2
42,2017,11907,GRÅTNES,0.07,0.11,0,FORSAND,58.87195,6.123217,12.9
42,2017,11657,GRÅVIKA,0.4,17.9,9.65,GULEN,60.86178,4.934883,13.4
42,2017,32917,GREGUSVIKA,0.05,0.06,0,IBESTAD,68.81875,17.34635,10
42,2017,11559,GRIMSHOLMEN,0.49,1.92,0.12,SVEIO,59.65735,5.404167,12.9
42,2017,11771,GRISHOLMSUNDET,0.03,0.23,0.03,FEDJE,60.79272,4.693633,12.95
42,2017,12435,GRØTTINGSØY,0,0.62,0.35,FRØYA,63.87968,8.543767,13.22
42,2017,29096,GRØTTØY,,,,HADSEL,68.44508,14.81938,
42,2017,17177,GRUNNENESET,0.42,0.81,0.1,BREMANGER,61.89385,5.34825,12.66
42,2017,24615,GRUNNSØYA,,,,FLORA,61.68468,4.915333,
42,2017,33597,GRYTØYRAHOLMEN,0,0.5,0.14,FJALER,61.29278,5.014117,13.8
42,2017,12265,GUDMUNDSET,,,,SKODJE,62.45375,6.601283,
42,2017,10318,GULESTØ,0.33,1.56,0.05,BREMANGER,61.75802,5.069883,12.91
42,2017,24735,GULHOLMEN,0.04,0.09,0.06,OS I HORDALAND,60.1282,5.400467,12.5
42,2017,33357,GULLKLAKKEN,0,0,0,SMØLA,63.47922,7.999867,12.5
42,2017,12789,GUNNARØYA,0.01,0.03,0.01,SNILLFJORD,63.56948,9.467983,11.7
42,2017,32317,GURIØYNA,,,,ASKVOLL,61.29792,4.66045,
42,2017,33757,HÅBRANDEN,0,0,0,FRØYA,63.942,9.133483,12.5
42,2017,29697,HAFSMO,1.95,1.85,0,SNILLFJORD,63.3667,9.245217,11.4
42,2017,19995,HAGAHAMMAREN,,,,AURE,63.13777,8.03015,
42,2017,22095,HÅGARDSNESET,,,,KVINNHERAD,59.9844,5.929967,
42,2017,16755,HAGEBERG,,,,FITJAR,59.94422,5.434733,
42,2017,13949,HAGEBERGAN,,,,SKJERVØY,69.97912,21.02718,
42,2017,13886,HALLARØY V,0,0.04,0.01,FRØYA,63.99812,9.129283,12.6
42,2017,36737,HALLSTEINHAMN I,0.03,0.11,0.06,BODØ,67.4421,14.71295,9.7
42,2017,11318,HALLVARDØY,,,,LØDINGEN,68.37497,15.31733,
42,2017,36937,HALLVARDSØYA,,,,TRANØY,69.15137,16.90653,
42,2017,18639,HALSAVIKA,0,0.65,0.1,TYSVÆR,59.39232,5.883333,12.94
42,2017,12895,HALSBUKTA,,,,TINGVOLL,63.07769,8.143622,
42,2017,18717,HAMMARVIKA,,,,GILDESKÅL,67.13229,14.31318,
42,2017,13592,HAMMER,,,,STEIGEN,67.95877,15.17167,
42,2017,13996,HAMNEFJORD,,,,HAMMERFEST,70.57534,23.03444,
42,2017,10783,HAMNEIDET,,,,NORDREISA,69.93111,20.95543,
42,2017,31577,HANEHOLMEN,0.11,0.2,0,GLOPPEN,61.84045,6.10055,13
42,2017,31897,HÅØYA,,,,HITRA,63.46562,8.727233,
42,2017,12011,HÅØYA NØ,,,,TYSVÆR,59.29042,5.6765,
42,2017,36617,HARBAKHOLMEN,0.1,1.33,0.57,VIKNA,64.95332,11.19572,10.8
42,2017,11643,HATLEM Ø,,,,HYLLESTAD,61.20092,5.262117,
42,2017,11511,HATTASTEINEN,0.36,1.09,0.14,BØMLO,59.62627,5.250717,13.5
42,2017,26615,HAUG,,,,KVÆFJORD,68.76693,16.06485,
42,2017,36178,HAUKØYA Ø,0,0.05,0.07,SKJERVØY,70.04613,21.28203,10
42,2017,30257,HAUSAN,0.01,0.17,0.01,HEMNE,63.45838,8.955683,12.6
42,2017,11740,HAVERØY,0.01,0.17,0.01,FJELL,60.40477,4.93995,13.2
42,2017,24035,HÅVIKVÅGEN S,,,,FUSA,60.16983,5.69645,
42,2017,36778,HAVSTEIN SØR,0.26,2.06,0.66,DØNNA,66.16405,12.40077,10.6
42,2017,30897,HAVSUNDET,,,,BJUGN,63.79953,9.440667,
42,2017,12896,HEGERBERGTRØA,,,,TINGVOLL,62.88393,8.149917,
42,2017,10425,HEGGVIKA,,,,BINDAL,65.12658,12.07198,
42,2017,13503,HEGGVIKA,,,,HITRA,63.6106,9.050733,12.37
42,2017,13838,HEGNES,0.2,1.67,0.18,FJALER,61.35633,5.284667,13.52
42,2017,32737,HELDALEN,0.43,1.57,0.01,VESTVÅGØY,68.10022,13.62033,10.9
42,2017,13782,HELGENESHAMN,,,,HADSEL,68.49158,15.2339,
42,2017,11969,HELGØY,,,,FINNØY,59.22662,5.853783,
42,2017,11783,HELLA,0.03,0.09,0.17,ASKVOLL,61.40663,5.080817,12.5
42,2017,10194,HELLAREN,0.25,1.5,0.4,MIDSUND,62.73583,6.74745,12.8
42,2017,14679,HELLFJORDEN,,,,BØ I NORDLAND,68.66825,14.80025,
42,2017,12590,HELLIGHOLMEN,,,,VIKNA,64.83839,10.66552,
42,2017,27376,HENDNESET,,,,AVERØY,63.0573,7.5142,
42,2017,11920,HERØY,0.18,0.44,0.12,VINDAFJORD,59.4664,6.0262,13.01
42,2017,22596,HESBYGRUNNEN,0,0.01,0.18,FINNØY,59.19442,5.800183,13.6
42,2017,21957,HESJEHOLMEN,,,,BALLANGEN,68.40231,16.85927,
42,2017,13235,HESSVIK,,,,KVINNHERAD,60.12793,6.149933,13.7
42,2017,13119,HESTEN,,,,ALTA,70.23785,23.4112,
42,2017,21235,HESTENESET,,,,FLORA,61.60227,5.034633,
42,2017,13006,HESTHOLMEN N,,,,GILDESKÅL,67.14678,14.01653,
42,2017,14136,HESTHOLMEN Ø,0,0.12,0.12,KVITSØY,59.06152,5.445683,13.3
42,2017,26815,HESTØY,,,,HERØY I NORDLAND,66.00055,12.26717,
42,2017,34677,HESTØYA,0.03,0.55,0.1,SMØLA,63.3095,8.115567,13.2
42,2017,26955,HETTANESET,,,,VINDAFJORD,59.45863,5.8491,
42,2017,33797,HIDLEKJERRINGA,0,0,0,STRAND,59.06728,5.839383,13.3
42,2017,34017,HILBÅAN,0.2,0.7,0,HITRA,63.6686,8.844717,12.6
42,2017,31177,HILDERKLEIVA,,,,KVÆFJORD,68.78005,16.0978,
42,2017,10300,HILLERSVIK,0.21,1.28,0.05,SVEIO,59.6084,5.311917,13.3
42,2017,10410,HINDHOLMEN,0.05,0.11,0,NÆRØY,64.77393,11.44087,10.6
42,2017,12036,HISDALEN,0.04,0.6,0.08,KVINNHERAD,60.12612,5.9305,12.77
42,2017,10291,HISKHOLMEN,0.26,7.2,0.63,BØMLO,59.72663,5.145617,13.6
42,2017,13643,HJARTHOLM,0.01,1.21,0.13,GULEN,61.03512,5.33105,13.3
42,2017,32417,HJARTHOLMOSEN,,,,AUSTEVOLL,60.00458,5.227917,
42,2017,15655,HJARTØY N,,,,NESNA,66.23579,12.70997,
42,2017,13931,HJARTØY Ø,0.2,0.7,0,STEIGEN,67.6562,15.11857,10.4
42,2017,10808,HJELLBERGET,0.01,0.01,0.01,KVÆNANGEN,69.9116,21.59717,7.91
42,2017,10576,HJELNES,,,,KVÆNANGEN,70.06378,21.90345,
42,2017,12483,HJORTHOLMAN,0.34,0.72,0,SMØLA,63.45773,7.8561,11.5
42,2017,31257,HJORTHOLMAN 2,,,,SMØLA,63.4621,7.856233,
42,2017,35197,HJORTØYA,0.43,2.15,0.78,VIKNA,64.9848,11.13547,10.7
42,2017,33957,HOFSØYA,,,,FRØYA,63.72217,8.913317,
42,2017,10536,HØGHOLMEN,0.13,0.28,0.04,HARSTAD,69.03159,16.48187,11.06
42,2017,12871,HOGSNES,0.03,0.34,0.02,AVERØY,63.09303,7.675883,13.1
42,2017,30377,HOGSNESET N,0.03,0.22,0,AVERØY,63.09993,7.670267,13.1
42,2017,17176,HOLANDSELV,,,,KVÆFJORD,68.69912,15.97893,
42,2017,11571,HOLEVIK,0.01,0.96,0.03,BØMLO,59.77658,5.321817,12.86
42,2017,12035,HONDSKÅR,0,0.86,0.26,KVINNHERAD,60.10687,5.939133,12.7
42,2017,12897,HONNHAMMARVIKA,,,,TINGVOLL,62.86337,8.157583,
42,2017,32757,HORGEFJORDEN,0.35,7,0.7,AUSTEVOLL,60.10083,5.117067,13.3
42,2017,10518,HORSVÅGEN,,,,HAMARØY,68.02078,15.30238,
42,2017,33218,HOSENØYAN,0,0.12,0.01,ÅFJORD,64.08518,9.884683,11.7
42,2017,13337,HOVDENAKKEN,0.13,0.27,2.22,LEBESBY,70.81175,27.50033,7.7
42,2017,12890,HØYBUVIKA,0.04,0.32,0,GJEMNES,62.9563,8.049217,11.6
42,2017,13784,HØYDALSVIKA,0.03,0,0.03,ØKSNES,68.93615,15.02237,11.14
42,2017,19939,HØYSTEINEN,0.37,1.87,0.03,KVINNHERAD,60.15742,6.050117,13.2
42,2017,11786,HØYVIKA,,,,ASKVOLL,61.37412,4.963683,
42,2017,21715,HUKEN,,,,LENVIK,69.50706,17.90588,
42,2017,21516,HULLØYHAMN Ø,,,,TYSFJORD,68.05714,16.20447,
42,2017,25235,HUMULEN,,,,VIKNA,64.94605,11.37247,
42,2017,10796,HUNDBERGAN,,,,LOPPA,70.19289,21.81905,
42,2017,32777,HUNDBERGAN,,,,LENVIK,69.55688,17.61055,
42,2017,27856,HUNDHOLMEN,0.1,0,0,FAUSKE,67.26553,15.12518,10
42,2017,11897,HUNDSNES,,,,HJELMELAND,59.22098,6.11915,
42,2017,21016,HUSFJORD,0.11,0.29,0.19,HAMMERFEST,70.54951,22.95588,9.2
42,2017,34397,HYSENESET,0.44,6.86,4.25,GULEN,60.86148,4.964867,13.7
42,2017,11251,HYSJORDA,0.14,0.08,0.06,BØ I NORDLAND,68.78958,14.627,11
42,2017,18936,IGERØY Ø,0.16,0.05,0.01,VEGA,65.68622,12.13853,11.1
42,2017,27095,IHLHOLMEN,0.14,0.97,0.1,VINDAFJORD,59.7215,5.586633,13.5
42,2017,12397,ILSØYA,,,,FRØYA,63.66418,8.431683,
42,2017,10240,ILSØYA Ø,,,,HITRA,63.65197,8.88687,
42,2017,12115,ILSVÅG,,,,VINDAFJORD,59.51703,5.81015,
42,2017,29756,INDRE BRINGENES,0.05,0.36,0.98,BERG,69.48227,17.57155,10.4
42,2017,10768,INDRE KÅRVIK I,,,,TROMSØ,69.8674,18.91857,
42,2017,33057,INDRE LOKKARFJORD,,,,ALTA,70.21558,22.62658,
42,2017,13236,INDRE OPPEDAL,0.05,0.58,0.25,GULEN,61.06788,5.563833,13.2
42,2017,12599,INDRE SKJERVØY,0,0.03,0.01,OSEN,64.2858,10.30905,11.31
42,2017,11957,INDRE SLETTAVIKNESET,,,,SANDNES,58.9542,5.943617,13.5
42,2017,11405,INNERBROKLØYSA,0.09,0.13,0.09,SORTLAND,68.63071,15.48332,10
42,2017,12634,INNERNESSET,,,,FLATANGER,64.46735,10.73542,
42,2017,13654,INSTEFJORD,,,,GULEN,60.98783,5.483183,
42,2017,12224,ISANE,1.05,8.75,0.12,BREMANGER,61.87653,5.722767,12.6
42,2017,24295,ISBERGAN,0,0,0,MELØY,66.81468,13.67818,11
42,2017,10876,ISTERVIKA,0.01,0.04,0,BRØNNØY,65.44688,12.56175,11.41
42,2017,14245,JAKOBSTEINSVIKA,,,,LEKA,65.11265,11.79287,
42,2017,36137,JEKTEBERGET,,,,IBESTAD,68.85322,17.06575,
42,2017,19977,JEKTHOLMEN,0.42,1.01,0.72,ÅFJORD,63.99495,9.928317,11
42,2017,11269,JEKTVIKA I,,,,SØRFOLD,67.53132,15.44357,
42,2017,10885,JEKTVIKA II,0.26,0.85,0.01,SØMNA,65.31274,12.4022,10.66
42,2017,27176,JENNSKARBOTN,,,,BØ I NORDLAND,68.78313,14.64353,
42,2017,33197,JERNELVA,0,0.07,0.02,KVALSUND,70.44928,23.63865,7.6
42,2017,26495,JEVIK,0.02,0.06,0,BALLANGEN,68.41264,16.52693,10.5
42,2017,11665,JIBBERSHOLMANE,0.16,0.8,0.32,RADØY,60.75253,4.884617,12.4
42,2017,30036,JØRSTADSKJERA,0.02,0.28,0.18,FINNØY,59.29632,5.936933,14
42,2017,25736,JOSOMMARSET,0,0,0,TYSFJORD,67.92365,16.21152,10
42,2017,13783,JURNESET,,,,ØKSNES,68.89767,15.0063,
42,2017,11225,JUVÅGEN,0.36,0.4,0.12,ØKSNES,68.91838,14.98118,10.8
42,2017,12260,JUVIKA,0,0,0,MIDSUND,62.66477,6.696767,12.8
42,2017,29656,JUVIKA,0.07,2.47,1.97,SOLUND,61.10477,5.018483,13
42,2017,13242,JUVIKA B,0.34,3.43,0.11,BREMANGER,61.89568,5.6331,13.37
42,2017,15657,KÅGEN,0.03,0.05,0.03,SKJERVØY,69.94662,20.75277,9.4
42,2017,12348,KÅHOLMEN,0.28,2.03,0.21,HITRA,63.61718,8.994133,12.21
42,2017,13220,KALHAG,0,0,0.01,STRAND,58.97472,5.93595,14.9
42,2017,22915,KALSØYFLU,0.3,1.08,0.15,AUSTEVOLL,60.03818,5.114417,13
42,2017,34797,KALVHAGAN II,,,,NÆRØY,64.95078,12.0567,
42,2017,27996,KALVHODET,,,,VÅGAN,68.33881,15.23658,
42,2017,36217,KALVHYLLA,0,0.02,0,VEVELSTAD,65.74827,12.54053,11
42,2017,29576,KALVIK,,,,SØRFOLD,67.51317,15.57043,
42,2017,15118,KALVØYA,,,,LURØY,66.39365,12.79975,
42,2017,12371,KALVØYA,,,,HITRA,63.65148,8.7472,
42,2017,10087,KALVØYA N,0,0,0,ASKVOLL,61.31937,4.707167,12.9
42,2017,31517,KAMHOLMEN,,,,FRØYA,63.76242,8.882933,
42,2017,10759,KARANES,0.02,0.12,1.15,KARLSØY,70.06638,19.30532,10.4
42,2017,36817,KARISKJÆRET,0.3,0.94,0,BODØ,67.38345,14.38197,11
42,2017,10560,KÅRVIK,,,,TROMSØ,69.86523,18.92509,
42,2017,10804,KARVIKA,,,,KVÆNANGEN,69.85198,21.82898,
42,2017,31757,KASTEBERGET,0.32,0.68,0.02,IBESTAD,68.79125,16.91402,10.4
42,2017,16281,KASTEVIKA,,,,BØMLO,59.89542,5.103917,
42,2017,12872,KATTHOLMEN,0.14,0.25,0,KRISTIANSUND,63.05533,7.695317,13.2
42,2017,14042,KATTHOLMEN,0.13,0.62,0.27,FRØYA,63.87097,8.679017,12.9
42,2017,30437,KATTHOLMEN II,0,0.14,0.01,FRØYA,63.86478,8.676583,12.9
42,2017,16736,KÅVIKA,,,,SKJERVØY,69.95783,20.69315,
42,2017,13225,KILANESET,0.32,3.67,0.18,SULDAL,59.31335,6.2672,14
42,2017,31477,KILAVÅGEN SJØ,,,,SULDAL,59.31797,6.2872,
42,2017,13279,KILVÅGEN Y,,,,VEVELSTAD,65.70821,12.58882,
42,2017,13297,KINES,,,,SØRFOLD,67.44881,15.48797,
42,2017,12660,KIPHOLMEN,,,,NÆRØY,64.79387,11.68953,
42,2017,31917,KIRKENESET,,,,HAMMERFEST,70.71336,23.82743,
42,2017,13573,KISTVIKA,0.05,0.37,0,HEMNE,63.38117,9.164317,12.5
42,2017,11913,KJEAHOLA,0.34,1.23,0.41,FINNØY,59.2933,6.0729,13.14
42,2017,33577,KJEHOLMEN II,0,0,0,FARSUND,58.06008,6.885683,13.8
42,2017,23755,KJEIPRØD,0.39,0.41,0,LAVANGEN,68.78529,17.64295,9.9
42,2017,11173,KJELDBERGVIKA,,,,VÅGAN,68.22117,14.5218,
42,2017,13687,KJELDHOLMEN,,,,VIKNA,64.96554,11.17046,
42,2017,10409,KJELNESET,0,0.01,0.01,FOSNES,64.64391,11.38852,11.37
42,2017,13009,KJEØYA N,,,,VESTVÅGØY,68.08683,13.58528,
42,2017,11652,KJEPPEVIKHOLMEN,,,,MELAND,60.54283,5.0378,
42,2017,18275,KJERINGÅ,0,0.07,0.05,FINNØY,59.19205,5.870067,12.4
42,2017,36297,KJERINGEHOLMEN,,,,ASKVOLL,61.38997,4.98405,
42,2017,11112,KJERKVIKA,0.42,0.17,0.11,GILDESKÅL,67.10786,14.26898,10
42,2017,11689,KJERRINGNESET,,,,GULEN,60.96018,5.106783,
42,2017,12294,KJERSTAD,,,,HARAM,62.62237,6.224883,
42,2017,26135,KJØRSVIKGRUNN,0,0.12,0.02,HEMNE,63.45757,9.076,12.7
42,2017,27015,KJØSEN,0,0,0,LOPPA,70.14118,22.24503,9.6
42,2017,32257,KJØTTA V,0.4,0.95,0,HARSTAD,68.8658,16.67022,9.8
42,2017,32577,KLAMMERHOLMEN,,,,AUSTEVOLL,60.08165,5.168567,
42,2017,10723,KLAUVNES,,,,SKJERVØY,69.89972,20.7343,
42,2017,24455,KLAVELANDET,0.2,0.7,0.03,FLORA,61.60395,5.186533,12.4
42,2017,10828,KLEPPENES N,0,0,0.02,HAMMERFEST,70.53805,23.55853,7.8
42,2017,12215,KLEPPENESET,0.1,0.18,0,GLOPPEN,61.78593,5.977233,12.4
42,2017,10206,KLEVEN,,,,AVERØY,63.0693,7.60185,
42,2017,36037,KLIPEN,,,,LEIRFJORD,66.1336,12.85198,
42,2017,29476,KLOKKARDALEN,0.26,0.73,1.64,TROMSØ,69.70953,18.36398,9.2
42,2017,10724,KLOKKSTEIN,0.02,0,0.01,NORDREISA,69.81612,20.71782,9.3
42,2017,19755,KLUBBEN,,,,SØMNA,65.3523,12.43795,
42,2017,12980,KLUBBEN,0.4,4.7,0.5,SOLUND,61.17572,5.0051,13.3
42,2017,33998,KLUBBEN,0,0,0,HASVIK,70.66345,22.62173,9.6
42,2017,11829,KLUBBENES,,,,ASKVOLL,61.3208,4.94105,
42,2017,13339,KLUNGERVIKNESET,0,0.02,0,BØMLO,59.74668,5.3424,13
42,2017,18755,KLUNGSET,0.01,0.02,0.02,NÆRØY,64.74997,11.39418,10.9
42,2017,11534,KLUNGSHOLMEN,0.38,2.24,0.46,BØMLO,59.59678,5.161567,13.2
42,2017,11763,KNAPPEN,0.33,0.5,0.03,ØYGARDEN,60.5735,4.818517,12.84
42,2017,13567,KNAPPEN SOLHEIM,0,0,0,MASFJORDEN,60.88533,5.4616,13
42,2017,10113,KOBBAVIKA,,,,FINNØY,59.12232,5.934433,
42,2017,32598,KOKELV,0.13,0.4,0.51,KVALSUND,70.6381,24.5791,7.5
42,2017,13764,KOKVIKA,0.44,0.84,0.04,LURØY,66.41282,12.95687,10.6
42,2017,11575,KOLØY N,,,,FITJAR,59.8616,5.288267,
42,2017,11201,KOLVIKODDEN Ø,,,,VESTVÅGØY,68.08817,13.68965,
42,2017,29557,KOMAGNES,0,0.01,0.01,KVALSUND,70.482,23.63353,7.8
42,2017,12841,KORMESET,,,,RAUMA,62.61562,7.2765,
42,2017,12855,KORNSTAD,0.1,0.26,0.01,AVERØY,62.96038,7.45015,13.5
42,2017,19195,KORSHOLMAN,0,0.18,0.06,HITRA,63.59722,8.51575,12.63
42,2017,20316,KORSNES,0.44,1.2,0.04,HADSEL,68.33148,14.94822,10.4
42,2017,36797,KORSNES,0.04,0.03,0.01,KARLSØY,69.98692,19.93163,9.79
42,2017,10224,KORSNESET,,,,HALSA,63.14268,8.225383,
42,2017,32097,KORSNESET 2,,,,HALSA,63.14123,8.21375,
42,2017,11809,KRABBESTIG,0,0.19,0.02,VÅGSØY,61.89457,5.0616,12.67
42,2017,30297,KRABBHOLMEN,0.31,1.29,0.16,ÅFJORD,63.94438,9.880667,10.9
42,2017,33177,KRABBHOLMEN II,0.34,0.91,0.12,ÅFJORD,63.94,9.886633,11
42,2017,13803,KRÆMARVIKA,,,,TROMSØ,69.69965,18.6517,
42,2017,12476,KRÅKA NØ,,,,SMØLA,63.47682,8.060967,
42,2017,34037,KRÅKÅSEN,0.77,1.46,0,STEIGEN,67.73985,14.89682,10
42,2017,16055,KRÅKEBERGET,0.2,0.31,4.1,MÅSØY,70.83325,25.25433,7.7
42,2017,11719,KRÅKENES,0,0.47,0.2,SOLUND,61.05835,4.921317,13
42,2017,10614,KRÅKEVIK,0.01,0.05,0.01,ALTA,70.26263,23.30475,8.4
42,2017,21676,KRÅKHOLMEN,0.19,0.99,0.08,FLATANGER,64.60255,10.85407,12
42,2017,12239,KRÅKNES,,,,AUKRA,62.83145,6.962733,11.99
42,2017,25935,KRÅKØY SLAKTERI,,,,ROAN,64.14815,10.15912,
42,2017,12652,KRÅKØYA,,,,VIKNA,65.00378,11.04237,
42,2017,14040,KRIGSHOLMEN,,,,AUSTEVOLL,60.08138,5.124117,
42,2017,11633,KROSSHOLMEN,0.2,1.08,0.12,BØMLO,59.7879,5.100533,13.24
42,2017,14681,KUNAKKEN,,,,VÅGAN,68.30505,15.13407,
42,2017,13222,KUNES,0.18,1.3,0.09,FINNØY,59.21137,5.9532,12.5
42,2017,13595,KUNESET,,,,SORTLAND,68.71447,15.03483,
42,2017,32518,KUØYNA,0.18,1.48,0.24,GULEN,60.99698,4.897467,12.8
42,2017,10837,KUVIKA,,,,HAMMERFEST,70.66644,23.16433,
42,2017,32657,KVALNESBUKTA,,,,BODØ,67.23898,14.8369,
42,2017,18217,KVALØY Ø,,,,KARMØY,59.39663,5.171083,
42,2017,22775,KVALØYA,,,,VIKNA,65.00191,11.05862,
42,2017,19356,KVALROSSKJÆRET,0.09,0.29,0.06,FLATANGER,64.53883,10.87705,11.8
42,2017,11074,KVALVIKA,0,0.01,0,RØDØY,66.66908,13.39163,10.79
42,2017,13831,KVAMME,,,,OSTERØY,60.51833,5.3811,
42,2017,12213,KVANGARDSNES,0,0.38,0.08,VOLDA,62.14532,5.94545,13.2
42,2017,20576,KVANNTONESET,,,,LAVANGEN,68.81237,17.52025,
42,2017,21337,KVEITHOLMEN,0.02,1.64,0,LURØY,66.3242,12.64758,11.2
42,2017,35377,KVEITSKJERET,,,,FRØYA,63.82503,8.444633,
42,2017,15860,KVENBUKTA V,,,,TORSKEN,69.23299,17.08938,
42,2017,32217,KVERNANESET,,,,SVEIO,59.68532,5.4311,
42,2017,24975,KVERNAVIKA,0.01,0.18,0.02,TYSNES,60.06928,5.351183,12.4
42,2017,28196,KVERNES,,,,BALLANGEN,68.39288,16.91392,
42,2017,11714,KVERNHUSVIKA,,,,SOLUND,61.0678,4.94225,
42,2017,10041,KVIKSHOLMEN,0,0.05,0,AUSTEVOLL,60.05432,5.090733,13
42,2017,36457,KVINGRA,0.39,1.27,0.01,LEKA,65.20317,11.569,11.6
42,2017,35997,KVITEBERG,0.03,0.2,0.34,KVÆNANGEN,69.95387,21.88035,8.35
42,2017,13813,KVITELV,,,,LEBESBY,70.62917,27.12332,
42,2017,11775,KVITESKJERET,0,0.05,0.05,ASKVOLL,61.46782,5.2203,13
42,2017,30216,KVITFLOGET,0,0,0,TRANØY,69.14508,17.6465,9
42,2017,12727,KVITNESET,,,,NÆRØY,64.96803,11.66516,
42,2017,35777,KVITSKJÆRET,,,,HERØY I NORDLAND,66.1008,12.15733,
42,2017,11803,KYRAVIKA,0.07,0.5,0.09,FJALER,61.31643,5.1563,13.8
42,2017,20595,KYRHOLMEN S,0.07,1.26,0.12,AUSTEVOLL,60.16158,5.207633,12.6
42,2017,30076,KYRØYENE,0.09,0.14,0,VIKNA,64.76402,10.80663,11.3
42,2017,13234,KYSNES,,,,JONDAL,60.19877,6.09685,
42,2017,34657,LABERGET,,,,MASFJORDEN,60.74992,5.298833,
42,2017,10989,LABUKTA V,0,0.13,0.17,HERØY I NORDLAND,66.01325,12.35057,11
42,2017,15460,LAHOLMEN,,,,NORDKAPP,70.89355,25.55705,
42,2017,10080,LAKSEVIKA,,,,MELAND,60.53015,5.11575,
42,2017,10898,LAMHOLMEN,0.47,0.3,0.05,BRØNNØY,65.47093,12.1338,11.1
42,2017,12993,LAMØYA,,,,FRØYA,63.73259,8.856378,
42,2017,34457,LANGÅS,0.15,0.17,0,KARLSØY,70.01058,19.66662,10.4
42,2017,11928,LANGAVIKA,,,,HJELMELAND,59.23207,6.008317,
42,2017,11791,LANGERÅA,0,0.4,0.02,FLORA,61.63175,4.863617,13
42,2017,16497,LANGEVÅGEN,,,,BØMLO,59.61327,5.245267,
42,2017,24715,LANGHOLMEN,0,0.03,0.15,FINNØY,59.09728,5.835917,12.99
42,2017,11625,LANGHOLMEN,,,,SUND,60.21533,5.062659,
42,2017,11116,LANGHOLMEN,0.29,1.7,0.35,GILDESKÅL,67.05783,14.02533,10.3
42,2017,34637,LANGHOLMEN N,,,,HADSEL,68.66638,14.91472,
42,2017,26295,LANGØY,0,8.08,2.2,LINDÅS,60.77913,5.1608,13.43
42,2017,12380,LANGØYA KVALØYA,0.08,0.2,0.05,FRØYA,63.79152,8.6066,13.3
42,2017,13002,LANGØYA NNV,,,,HERØY I NORDLAND,66.06081,12.24232,
42,2017,11238,LANGØYHOVDEN,0.03,0.02,0,ØKSNES,68.80405,14.8663,10.8
42,2017,13055,LANGØYNA Ø,0,0.01,0.06,TYSVÆR,59.2983,5.713333,12.4
42,2017,20559,LANGSKJÆRA,0.09,0.91,0.08,FRØYA,63.8225,8.75505,12.1
42,2017,33557,LANGSKJÆRA II,0.05,0.5,0.02,FRØYA,63.82245,8.74075,12.1
42,2017,28036,LANGSKJÆRAN,0.1,0.31,0.05,GILDESKÅL,67.11839,13.89842,11.16
42,2017,37297,LARSTANGEN,,,,KARLSØY,70.08445,20.09037,
42,2017,15957,LATVIKA,0.03,0.03,0.06,UNJARGGA-NESSEBY,70.0645,29.0347,5.7
42,2017,28476,LAUKSUND KAI,,,,SKJERVØY,70.10519,20.75467,
42,2017,11438,LAUPLANDSHOLMEN,0.02,0.08,0,BOKN,59.17973,5.472633,12.5
42,2017,33777,LAUSKLUBBEN,0.08,0.23,0.13,UNJARGGA-NESSEBY,70.02435,29.29218,6.4
42,2017,19355,LÅVA,0.2,0.43,0.31,FINNØY,59.29677,5.9888,13.76
42,2017,11350,LAVIKA,,,,TORSKEN,69.25753,17.0887,
42,2017,13340,LEIHOLMANE,0.12,0.3,0.42,GULEN,60.98222,4.875017,13.1
42,2017,12744,LEIKVANGBUKTA SJØ,,,,BJUGN,63.86135,9.856467,
42,2017,26675,LEIRHOLMEN,0,0.67,0.29,LURØY,66.3565,12.53012,10.4
42,2017,30857,LEIRVIK,0.74,0.49,0.02,GILDESKÅL,67.0267,14.12628,11.4
42,2017,13699,LEIRVIKA,0.12,0.84,2.3,MASFJORDEN,60.74215,5.344317,15.2
42,2017,12870,LEITE,0.17,0.87,0.01,AVERØY,63.03598,7.678117,13.1
42,2017,19098,LEIVSETHAMRAN,,,,FAUSKE,67.22733,15.35102,9.3
42,2017,34257,LEKAFJORDEN II,,,,LEKA,65.07878,11.72403,
42,2017,23056,LEKANGSUND II,0.09,0.14,0.02,TRANØY,69.03788,17.26418,9.2
42,2017,14086,LELANDSHOLMEN,0.35,6.12,0.55,BØMLO,59.72853,5.153067,13.4
42,2017,35977,LIAN,0,0,0,RØDØY,66.55785,13.52623,11.29
42,2017,10990,LILLE ÅSVÆR,0.23,0.28,0.05,DØNNA,66.22988,12.31753,11.4
42,2017,36497,LILLE DJUPFEST,,,,LØDINGEN,68.47665,16.09135,
42,2017,10840,LILLE KUFJORD,,,,ALTA,70.34652,22.97492,
42,2017,13317,LILLE KVALFJORD,0.11,0.17,0.01,ALTA,70.30338,22.93798,8.9
42,2017,10262,LILLE KVITHOLMEN,,,,NÆRØY,65.01145,11.6139,
42,2017,10823,LILLE SKOGNES,,,,LOPPA,70.13323,22.44297,
42,2017,12392,LILLE TORSØY,0,0.07,0.02,HITRA,63.60563,8.48855,12.63
42,2017,29056,LILLE TORSØY II,0,0,0,HITRA,63.60803,8.494633,12.63
42,2017,28396,LINDARHOLMEN,0,0.4,0,TYSNES,60.08403,5.638667,13.7
42,2017,12212,LINDENESET,,,,GLOPPEN,61.80082,5.982733,
42,2017,12966,LINDVIK,0.24,0.4,0.13,VINDAFJORD,59.47407,5.976433,13.01
42,2017,29996,LINESVIKA,,,,RØDØY,66.53785,13.3251,
42,2017,14076,LISMÅSØY,0,0.01,0,BRØNNØY,65.4933,12.16922,11
42,2017,35317,LITJEVIKA,0.05,0.12,0.06,DYRØY,69.00265,17.44057,9.49
42,2017,14039,LITLE LUNNØY,,,,AUSTEVOLL,60.02005,5.169533,
42,2017,11410,LITLEØYA,0,0,0,SORTLAND,68.61166,15.38108,8.53
42,2017,13876,LITLETVEITHOLANE,0,0.01,0.01,OSTERØY,60.47978,5.443633,11.93
42,2017,12022,LJONESBJØRGENE,0,0.01,0.01,KVAM,60.2564,6.16585,12.4
42,2017,14435,LJØSØY N,0.33,1.5,0,ØYGARDEN,60.56513,4.878417,13.3
42,2017,28996,LODDETÅ,0.14,0.14,0.04,SVEIO,59.69164,5.54298,14
42,2017,16216,LØNSKOG,0.2,0.17,0.43,ØKSNES,68.86298,15.09238,10.36
42,2017,13549,LØYPINGNESET,0,0.07,0,BREMANGER,61.81953,5.247667,8.1
42,2017,36757,LUBBEN,0.01,0.01,0.31,KARLSØY,69.93671,19.83218,10.17
42,2017,14043,LYBERGSVIKA,,,,RAUMA,62.64158,7.448583,
42,2017,10292,LYKLINGHOLMEN N,0.27,3.33,0.37,BØMLO,59.71453,5.15405,12.78
42,2017,12978,LYNGHOLMEN,1.03,8.5,0.17,GULEN,61.01693,5.007033,13.4
42,2017,33337,LYNGNES,0.05,0.15,0,FUSA,60.1197,5.720917,14
42,2017,32057,LYNGØY,0.05,0.18,0.04,VIKNA,64.81865,10.93522,11
42,2017,12385,LYNGVÆR Ø II,0,0.2,0.1,FRØYA,63.80621,8.567418,12.9
42,2017,12633,LYRNESSET,0.19,4.56,0.24,FLATANGER,64.5256,10.74813,11.4
42,2017,12127,MÆLEN,0.15,0.26,0,KVINNHERAD,59.69998,5.722917,14.3
42,2017,35477,MAKRELLSKJÆRET,0.28,2.4,0.09,FLATANGER,64.54919,10.7341,11.9
42,2017,10232,MANNBRUHOLMEN,0.03,0.3,0.06,FRØYA,63.8473,8.53675,12
42,2017,12370,MÅØYDRAGA,0,0.08,0.03,FRØYA,63.67696,8.75625,12.9
42,2017,12134,MARADALEN,0.12,0.24,0,KVINNHERAD,59.76077,5.686767,13.6
42,2017,32977,MÅREN,0.46,1.78,0.42,HØYANGER,61.15267,6.1167,11.8
42,2017,13550,MARØY NØ,,,,BREMANGER,61.84793,5.295383,
42,2017,10611,MARØYA,0.03,0.08,0.19,LOPPA,70.24958,21.70663,9.4
42,2017,13685,MARØYA,,,,NÆRØY,64.85477,11.2481,
42,2017,15516,MÅRØYFJORD,,,,LEBESBY,70.73724,27.31718,
42,2017,11807,MARØYTÅA,0,0,0.07,FLORA,61.50677,5.118367,12.5
42,2017,10814,MÅRSANJARGA,0.04,0.24,0.01,ALTA,70.24095,23.28445,7.8
42,2017,13139,MARTNESVIKA,0.2,0.21,0,STEIGEN,67.76622,15.58098,10.4
42,2017,22555,MASTERHOLMAN,,,,ROAN,64.16123,10.0496,
42,2017,10137,MATLAND,,,,FUSA,60.26408,5.6591,
42,2017,21915,MATLØYSO,0.15,1.06,0.14,FITJAR,59.95238,5.283167,13.9
42,2017,36117,MATVIKA,,,,SØRFOLD,67.528,15.35968,10.75
42,2017,10447,MEFALDSKJÆRET,0.09,0.1,0,ALSTAHAUG,65.85145,12.2872,10.6
42,2017,31637,MELKØYA,,,,HERØY I NORDLAND,66.08231,12.20117,
42,2017,28956,MELØYSJØEN,0,0.01,0,MELØY,66.81998,13.46147,11.4
42,2017,12904,MERRABERGET,,,,NESSET,62.7838,8.27825,
42,2017,21397,MIDT FEMRIS,0.01,0.08,0.04,GILDESKÅL,67.03316,13.96735,11.4
42,2017,13541,MIDTFLUA,0.2,0.35,0,TYSNES,60.07627,5.466533,12.8
42,2017,34277,MIKKELSØYA,,,,BØ I NORDLAND,68.65618,14.72993,
42,2017,29596,MISJONA,0.22,0.16,0,NORDKAPP,70.88541,25.49512,6.6
42,2017,10078,MJÅNES,0.3,6.9,0.7,GULEN,60.99773,5.0304,13.8
42,2017,12047,MJÅNESET,0.4,2.9,0.1,FUSA,60.176,5.7244,13.5
42,2017,26435,MJØLSVIK,,,,HØYANGER,61.11158,6.0423,
42,2017,36257,MJØNES,,,,KARLSØY,70.10643,19.58387,
42,2017,37057,MJØSUND VEST,0,0,0,IBESTAD,68.90805,17.40782,9.64
42,2017,34057,MOHAMN,0,0,0,DYRØY,69.12883,17.79755,9.7
42,2017,11772,MOLDØYOSEN,0.01,0.09,0.01,FEDJE,60.78963,4.70075,12.95
42,2017,13293,MOLGAVLEN,0.48,1.38,0.11,VÅGAN,68.30537,14.94993,10.8
42,2017,33837,MØLLEBOGEN,,,,BINDAL,65.06523,12.0875,
42,2017,36077,MOLLVIKA,0.05,0.5,0.18,HARSTAD,68.93653,16.72465,11
42,2017,12107,MOLNES,,,,ETNE,59.71992,5.857983,
42,2017,10877,MORTENØY,,,,BRØNNØY,65.45723,12.54973,
42,2017,10794,MORTENSNES,,,,ALTA,70.12487,23.22303,
42,2017,29516,MORTSUND,,,,VESTVÅGØY,68.08553,13.63342,
42,2017,30157,MOVIK,0.03,0.18,0.04,SØRFOLD,67.63265,15.26325,10.27
42,2017,33657,MOVIKODDEN,,,,LURØY,66.52848,12.88075,
42,2017,10858,MULINGEN,0.18,0.09,0.05,BINDAL,65.10865,12.44223,11.6
42,2017,35617,MULNESODDEN,,,,GILDESKÅL,67.14543,14.28118,
42,2017,13629,MUNKHOLMEN,0.01,0.06,0.01,TYSVÆR,59.28548,5.631317,13.2
42,2017,36877,MUNKSKJÆRA,,,,FRØYA,63.81968,8.408817,
42,2017,27215,MYRANE,,,,VESTNES,62.6505,6.726683,
42,2017,11332,MYRLANDSHAUG,,,,GRATANGEN,68.77705,17.28692,
42,2017,33997,NÆRINGSBUKTA,0,0,0,HASVIK,70.65926,22.64093,9.2
42,2017,29957,NAKKESTAD,,,,LYNGDAL,58.05583,7.06875,14.2
42,2017,11864,NAPP,0,0,0,FLEKKEFJORD,58.24867,6.53675,14.09
42,2017,10303,NAPPEHOLMANE,0,0.11,0,BØMLO,59.74303,5.363783,13.2
42,2017,10978,NAUSTHOLMEN,,,,LURØY,66.3673,12.37142,
42,2017,10213,NAUSTNESET,0.1,0.16,0.01,GJEMNES,62.9424,8.0756,11.4
42,2017,34477,NAUSTTAREN,,,,OSEN,64.38956,10.51253,
42,2017,13221,NAUTVIK,0,0.01,0.04,FINNØY,59.18348,5.94915,12.4
42,2017,11611,NAVEIDE,,,,AUSTEVOLL,60.13907,5.112783,
42,2017,24937,NEBBO,,,,KVINNHERAD,59.87075,5.725017,
42,2017,10513,NEDRE KVARV,,,,SØRFOLD,67.45849,15.51158,10.14
42,2017,13965,NESBØ GJELDSVIK,,,,LINDÅS,60.68835,5.4232,
42,2017,17576,NESEVÅGEN,,,,GULEN,60.89378,4.8371,
42,2017,15659,NØKLAN,,,,KVÆNANGEN,69.90768,21.8331,
42,2017,11041,NORD GÅSVÆR,,,,HERØY I NORDLAND,66.07035,12.06562,
42,2017,10375,NORD LEKSA,0,0.07,0.04,AGDENES,63.58947,9.409383,11.4
42,2017,23816,NORDBOTNET,,,,NESNA,66.25645,12.89285,
42,2017,14495,NORDEIMSØYNA,0.29,0.48,0.04,FINNØY,59.28695,5.812483,12.6
42,2017,11129,NORDFUGLØY,0.31,0.54,0.05,GILDESKÅL,67.08392,13.85685,11.23
42,2017,26315,NORDGJÆSLINGAN,0.03,0.12,0.2,VIKNA,64.7659,10.9128,10.2
42,2017,10791,NORDNES,0,0.07,0,ALTA,70.2831,23.40002,8.4
42,2017,19457,NORDSKAG,,,,FRØYA,63.71165,8.5614,
42,2017,33937,NØRHOLMEN,0.39,1.32,0.27,SMØLA,63.33892,8.2718,12.81
42,2017,35897,NYE HESSVIK,,,,JONDAL,60.13018,6.126617,
42,2017,33297,NYE SKORPA,0.01,0.26,0.06,DØNNA,66.03093,12.48148,11
42,2017,13020,NYGÅRD,0,0,0,SAMNANGER,60.35807,5.683283,12.9
42,2017,24495,NYSTØLVÅGEN,0,0,0,FUSA,60.05237,5.793417,7.6
42,2017,34537,NYSTØLVÅGEN II,,,,FUSA,60.05005,5.794033,
42,2017,11922,OANES SJØ,,,,FORSAND,58.91097,6.078467,
42,2017,27055,ODDANE,0.46,3.05,0.76,FLORA,61.5417,4.968867,12.61
42,2017,11168,ODDVÆRSÆTRA,1.54,3.36,0,VÅGAN,68.27039,14.76948,9.8
42,2017,11537,ØKLANDSVÅGEN,,,,BØMLO,59.79958,5.129417,
42,2017,37077,OKSBÅSEN,0.35,0.95,0.25,BINDAL,65.19105,12.6723,10.4
42,2017,10181,OKSEBÅSEN V,0,0.07,0.03,GISKE,62.51703,6.157833,12.69
42,2017,31697,OKSEN,0.04,0.12,0.01,FJELL,60.4336,4.940617,13
42,2017,11272,ØKSENGÅRD,,,,SALTDAL,67.13742,15.40508,8.8
42,2017,30559,ØKSNESET,0.13,2.53,0.18,AUSTRHEIM,60.81255,4.862317,13
42,2017,14019,ØKSNINGEN,0.32,0.65,0,BINDAL,65.13924,12.31975,10.5
42,2017,11320,OKSØY,,,,STEIGEN,67.97493,15.31077,
42,2017,10795,OLANESET,0,0.01,0,LOPPA,70.2122,22.2785,9.6
42,2017,33737,OLAUSSKJÆRET,,,,FRØYA,63.79047,8.502083,
42,2017,27876,OLDERBAKKEN,0.19,0.4,0,SØMNA,65.31118,12.36863,10.8
42,2017,10790,OLDERFJORD,0,0.01,0.01,KVALSUND,70.38598,23.47227,8
42,2017,15403,OLDERØY,0.33,0.84,0.18,SOLUND,61.10328,4.712233,12.67
42,2017,22995,OLDERVIK,,,,GILDESKÅL,67.07103,14.11397,
42,2017,11908,OLTESVIK,,,,GJESDAL,58.85492,6.124417,
42,2017,28676,OLVIKA,0.14,0.03,0,LURØY,66.43864,13.1274,10.5
42,2017,12071,OMMUNDSTEIGEN,0,0.04,0,SULDAL,59.55078,6.5131,11.4
42,2017,12383,OMSØYHOLMAN,0,0.01,0.01,HITRA,63.63162,8.574817,12.2
42,2017,10136,ONARØY,,,,TYSNES,59.95335,5.669683,
42,2017,10197,OPSHAUGVIK,0.03,0.3,0.13,STRANDA,62.28765,6.990333,12.3
42,2017,19875,OR,0.25,1.72,0,KRISTIANSUND,63.04072,7.8497,13.3
42,2017,17235,ØRNES,,,,LURØY,66.42008,13.01803,
42,2017,30518,ØRNFJORDBOTN,,,,LENVIK,69.49147,17.67307,
42,2017,12394,ØRNØYA,0,0.01,0,FRØYA,63.76187,8.445183,13
42,2017,24696,ØRNØYA II,0,0,0,FRØYA,63.75848,8.450367,13
42,2017,11088,ØRNSTOLEN,,,,RØDØY,66.584,13.00393,
42,2017,13888,OSHOLMEN,0.44,1.2,0.07,HITRA,63.66198,9.135583,12.67
42,2017,12179,OSLANDSURDA,0.37,1.7,0.8,HØYANGER,61.0795,5.8099,13.8
42,2017,19655,OSPENESET,0.09,6.09,2.08,LINDÅS,60.74618,5.2701,13.5
42,2017,10050,OSPØY Ø,0,0.95,0.1,BØMLO,59.86657,5.228133,13.2
42,2017,13691,OTERFJORDEN,,,,SØR-VARANGER,69.9099,29.68072,
42,2017,13959,OTERHOLMEN,,,,NÆRØY,64.81578,11.2208,
42,2017,11205,OTERHOLMEN I,,,,VESTVÅGØY,68.09264,13.63448,
42,2017,31397,OTERNESET,0.09,0.28,0.2,HARSTAD,68.92966,16.70143,11
42,2017,13345,OTERSTEGDALEN,0.16,0.26,0,FUSA,60.23545,5.638267,13.57
42,2017,11738,OTTERHOLMEN,0.38,1.95,1.4,RADØY,60.68642,4.908683,13.4
42,2017,13554,OVERÅNESET,0.07,0.57,1,STRANDA,62.29652,7.123917,12.4
42,2017,20315,OVERÅNESET V,0.41,2.45,0.56,STRANDA,62.30065,7.085433,12.5
42,2017,11378,ØVERGÅRDEN,,,,HARSTAD,68.98167,16.53467,
42,2017,11164,ØYHELLSUNDET,,,,VÅGAN,68.29053,14.82848,
42,2017,34697,ØYRA,0.07,0.04,0.87,LEBESBY,70.77477,27.2185,7.4
42,2017,33417,PERSFLUA,,,,BJUGN,63.91345,9.826433,
42,2017,33517,PETTERNES,,,,MÅSØY,70.8172,24.59057,
42,2017,11854,PINNEN,0.02,0.25,0.02,FLEKKEFJORD,58.22553,6.682717,13.51
42,2017,10841,POLLEN,,,,ALTA,70.34088,22.80487,
42,2017,13786,POLLNESET,,,,SORTLAND,68.71255,15.11255,
42,2017,18255,PORSVIKA,,,,SUND,60.21142,5.053667,
42,2017,11688,PORTEVIKA,0.2,0.5,0,HYLLESTAD,61.18885,5.090017,12.97
42,2017,11972,PRESTHOLMANE,,,,FINNØY,59.11677,5.8545,
42,2017,19556,PUNDSVIK,0.06,0.05,0,BALLANGEN,68.41753,16.79135,10.4
42,2017,10149,RAFDAL,0.15,0.18,0.01,ETNE,59.79092,6.176567,14.2
42,2017,30637,RAHKASLUOKTA,,,,TYSFJORD,68.02507,16.21425,
42,2017,10806,RAKKENES,0.01,0.05,0,KVÆNANGEN,69.88507,21.72998,8.7
42,2017,10873,RÅKNESET,,,,BRØNNØY,65.44093,12.62692,
42,2017,10996,RAMNØYA S,,,,DØNNA,66.23212,12.28032,
42,2017,13581,RAMSTADHOLMEN,,,,NÆRØY,64.75481,11.24603,
42,2017,11687,RAMSVIK,0,0.04,0.07,LINDÅS,60.57817,5.1907,12.7
42,2017,12366,RASKJÆRET,,,,FRØYA,63.79362,8.854567,
42,2017,28636,RATAREN,0.04,0.22,0.01,FRØYA,63.78088,8.517383,13
42,2017,31959,RATAREN II,0.12,0.16,0.01,FRØYA,63.78238,8.52635,13
42,2017,31958,RATVIKA,,,,ÅFJORD,63.97185,9.954783,
42,2017,30817,RAUDØYA,,,,OSEN,64.3646,10.43913,
42,2017,12406,RAUODDEN,0,0.06,0,HITRA,63.66453,8.884083,12.6
42,2017,32997,RAVEN,,,,VÅGAN,68.28668,15.12268,
42,2017,33477,REINSNESØYA,,,,SORTLAND,68.77283,15.44658,
42,2017,31777,REINVIKA,0.13,0.15,0,SØRFOLD,67.60568,15.36848,10.34
42,2017,29116,REIRÅKLAKKEN,,,,SMØLA,63.45033,8.167717,
42,2017,37097,REKEVIKA,,,,FLEKKEFJORD,58.37167,6.621667,
42,2017,10086,REKEVIKI,0,2.37,0.53,LINDÅS,60.72342,5.328583,13.7
42,2017,11072,RENDALSVIK,0.14,0.24,0.01,MELØY,66.69935,13.62412,11.3
42,2017,22796,RENGA S,0.02,0.04,0,RØDØY,66.58763,13.09663,10.1
42,2017,17357,RENNAREN,0,0.04,0.12,RENNESØY,59.13158,5.72165,12.9
42,2017,29896,RENNDALEN,0.01,0.07,0,HALSA,63.17617,8.616817,11.2
42,2017,10893,RENSØYA N,0.2,0.31,0.02,TRÆNA,66.50282,12.07097,11.8
42,2017,30657,REVØY,,,,LYNGDAL,58.0243,7.0268,14.2
42,2017,27395,RINDARØY,,,,AUKRA,62.8455,6.778383,
42,2017,12784,RINGHOLMEN,0,0,0,SNILLFJORD,63.56,9.41005,12.6
42,2017,11964,RINGJA,0.03,0.18,0.02,TYSVÆR,59.40547,5.8631,12.61
42,2017,14795,RINØYVÅG Ø,0.24,0.17,0.22,LØDINGEN,68.3779,15.76788,10.3
42,2017,12832,RISHOLMEN,,,,LILLESAND,58.1425,8.267517,
42,2017,21495,RISVÆRGALTEN,,,,NÆRØY,64.96537,11.53278,
42,2017,21176,RISVIK,0,0,0,TYSFJORD,68.08141,16.32142,10.47
42,2017,10822,RIVARBUKT,0.01,0.06,0.07,ALTA,70.08587,22.6618,8.3
42,2017,13804,ROGNDALEN,0,0.12,0,TROMSØ,69.78796,18.6531,10.2
42,2017,12281,ROGNE,0.01,0.09,0.01,HARAM,62.6695,6.356833,12.81
42,2017,12867,ROKSET,,,,AVERØY,62.97375,7.646183,
42,2017,29276,RONGØY,0.2,1.09,0.03,ØYGARDEN,60.50933,4.9317,12.5
42,2017,12209,RØNSTAD,0.03,1.03,0.18,VOLDA,62.13512,6.021433,13.27
42,2017,19517,RORSUNDET N,,,,ØYGARDEN,60.523,4.877683,
42,2017,12018,ROSSHOLMEN,0,0.05,0.14,KVAM,60.39461,6.275128,12.7
42,2017,12003,ROSSHOLMEN N,,,,RENNESØY,59.06428,5.722617,
42,2017,11122,RØSSØYA N,,,,GILDESKÅL,67.073,13.94758,
42,2017,10475,ROTHOLMEN,,,,MELØY,66.80963,13.11763,
42,2017,11883,ROTNES,,,,SULDAL,59.31177,6.260983,
42,2017,11770,ROTØY,0.38,1.48,0.32,ØYGARDEN,60.68282,4.759617,13.2
42,2017,31097,ROTVIKA,,,,SALANGEN,68.89478,17.69027,
42,2017,12298,RØYSA,0,0.04,0.01,GISKE,62.54865,6.1417,12.44
42,2017,13887,RØYTHOLMEN Ø,0.07,0.35,0.01,HITRA,63.6177,9.130033,12
42,2017,37197,RUGGSTEIN,0.01,0.04,0,FRØYA,63.77008,8.476033,13.1
42,2017,12794,RUNDKLUMPEN,0.1,1.45,0,BJUGN,63.8012,9.607983,12
42,2017,13612,RUNDREIMSTRANDA,0.27,3.85,0.08,SELJE,62.00997,5.331917,13.06
42,2017,16015,RUSSELVA,0,0.08,0.08,NORDREISA,69.88975,20.76902,9.3
42,2017,37037,RUTLEBEKK,,,,SIRDAL,58.65667,6.702333,
42,2017,35737,SÆTEROSEN,0,0,0,BRØNNØY,65.44133,12.44435,11.8
42,2017,13249,SAGELVA,0,0.05,0.01,ØRSTA,62.33795,6.38165,13.19
42,2017,32137,SAGEN 2,,,,SAMNANGER,60.34838,5.644033,
42,2017,10328,SAGVIK,0,0.04,0.05,KVAM,60.14103,5.906933,12.6
42,2017,30957,SALALUOKTA,0,0,0,TYSFJORD,68.03358,16.25385,10.5
42,2017,13597,SALANGSLIA,0.11,0.18,0,SALANGEN,68.85463,17.52088,10
42,2017,34857,SALATSKJÆRA,,,,FRØYA,63.90485,8.589133,
42,2017,12973,SALTKJELEN I,0,0.6,0.05,KVAM,60.31815,6.183183,12.4
42,2017,12019,SALTKJELEN II,,,,JONDAL,60.24802,6.2014,
42,2017,13748,SALTKJELVIKA,0,0,0,NAMSOS,64.59887,11.2662,11.1
42,2017,11856,SALVÅGVIKA,0,0.05,0,FLEKKEFJORD,58.22717,6.632767,13.96
42,2017,11413,SANDAN SØ,,,,ØKSNES,68.88583,15.31457,
42,2017,20096,SANDHOLMAN,,,,VESTVÅGØY,68.06018,13.5389,
42,2017,31677,SANDHOLMANE,0.4,0.15,0,SANDØY,62.79628,6.669933,12.5
42,2017,13296,SANDNES Ø,,,,HADSEL,68.58253,14.94188,
42,2017,12884,SANDNESBUKTA,0,0.01,0,NESSET,62.7369,7.8775,12.6
42,2017,35417,SANDØYA,0.65,1.64,0,STEIGEN,67.7382,14.75345,10.2
42,2017,19135,SANDØYA III,0,0,0,ROAN,64.24339,10.26445,11
42,2017,28416,SANDVIK,,,,VAKSDAL,60.45657,5.6922,
42,2017,11888,SANDVIK,0.22,0.36,0.05,SULDAL,59.31445,6.170917,13.5
42,2017,13243,SANDVIKA,0.15,0.63,0,VOLDA,62.19567,5.904417,13.21
42,2017,15462,SARNES,0,0,0.14,NORDKAPP,70.98,25.74783,8.3
42,2017,13035,SAUANESET I,0.23,0.83,0.12,AUSTEVOLL,60.08908,5.267967,13.4
42,2017,11758,SAUØY Ø,0.38,0.78,0.12,ØYGARDEN,60.59233,4.857833,11.8
42,2017,33317,SEGELNES,,,,KVALSUND,70.4457,23.75327,
42,2017,19855,SEGELRÅA,,,,AURE,63.14975,8.12855,
42,2017,17015,SEGLBERGET,0.12,0.43,0,KVINNHERAD,59.73043,5.788733,12.7
42,2017,34597,SEIBALLSKJÆRET,,,,FRØYA,63.76718,8.908517,
42,2017,10398,SEISKJÆRA,0.35,1.45,0.05,ÅFJORD,64.09225,10.11598,11
42,2017,37857,SEISKJÆRET,,,,HERØY I NORDLAND,65.93428,12.07157,
42,2017,13706,SELJESET,0,0.3,0.03,FLORA,61.58087,5.243233,12.5
42,2017,36517,SELSØYVÆR,0.07,0.46,0.07,RØDØY,66.5896,12.84965,10.9
42,2017,30877,SESSØYA,,,,TROMSØ,69.7467,18.24865,
42,2017,12844,SETERNESET,0,0,0,MOLDE,62.67393,7.31415,12.6
42,2017,12244,SETEVIKA,,,,MIDSUND,62.72807,6.939283,
42,2017,33017,SETEVIKA N,,,,MIDSUND,62.73835,6.937667,
42,2017,25735,SIGNALUOKTA,,,,TYSFJORD,67.90595,16.23892,
42,2017,24115,SINGSHOLMEN,0,0.13,0.01,HITRA,63.41975,8.411617,12.8
42,2017,13530,SJÅNESET,0.29,0.79,0.44,ØKSNES,68.90353,15.03733,11.1
42,2017,12892,SJØLSVIK,0.28,0.49,0.03,GJEMNES,62.9066,8.11095,11.7
42,2017,18898,SKAFTÅ,,,,OSTERØY,60.45552,5.627417,
42,2017,20515,SKAGANESET,,,,SUND,60.26852,5.1079,
42,2017,11138,SKÅLSVIKA,0.28,0.43,0,MELØY,66.7146,13.56152,11.4
42,2017,20796,SKARBUKTA,,,,RAUMA,62.59785,7.367717,
42,2017,10550,SKARDBERGVIKA,,,,GRATANGEN,68.72922,17.30707,
42,2017,10216,SKÅREN,0,0.15,0,HALSA,63.07673,8.19315,12.4
42,2017,32357,SKARET,,,,SKJERVØY,70.09061,20.75878,
42,2017,34137,SKÅRLIODDEN,0.04,0.1,0.02,LENVIK,69.47495,18.06542,9.8
42,2017,11357,SKARVBERGET,0.08,0.16,0.35,TRANØY,69.14665,17.01027,10.9
42,2017,31457,SKARVESTEIN,,,,SKJERVØY,69.99361,20.71115,
42,2017,16255,SKARVFJELL,,,,SØR-VARANGER,69.73117,30.41533,
42,2017,21795,SKARVHAUSEN,0.01,0.03,0,LØDINGEN,68.33971,15.38435,10.5
42,2017,14976,SKARVØY NV,,,,ALSTAHAUG,65.89302,12.32998,
42,2017,34117,SKÅTHOLMEN,,,,FUSA,60.17177,5.563633,
42,2017,19635,SKATLEIA,,,,BØ I NORDLAND,68.8001,14.59377,
42,2017,28856,SKAUHOLMEN,,,,GILDESKÅL,67.13772,13.9815,
42,2017,22315,SKAVHELLA,0.02,0.12,0.02,OS I HORDALAND,60.21893,5.5593,13.3
42,2017,12048,SKIFTESNESET N,0.33,0.57,0.02,FUSA,60.0711,5.736867,15.5
42,2017,11966,SKIGELSTRAND,,,,VINDAFJORD,59.49595,5.840517,
42,2017,10660,SKINNSTAKKVIKA,,,,MÅSØY,70.88918,24.94472,
42,2017,11861,SKIPNINGSDALEN,0,0.01,0,FLEKKEFJORD,58.24148,6.5958,13.87
42,2017,26196,SKJÅVIKODDEN,,,,BRØNNØY,65.48008,12.1775,
42,2017,36177,SKJELLESVIKA,0.2,1.2,0.6,HARSTAD,68.91143,16.64513,10.5
42,2017,20115,SKJERHOLMEN N,0.35,1.05,0.17,SUND,60.2496,5.174017,12.3
42,2017,12158,SKJERSNES,,,,SOGNDAL,61.2124,7.093267,
42,2017,11334,SKJERVIKA,,,,GRATANGEN,68.73133,17.23435,
42,2017,27737,SKJERVØY,,,,SKJERVØY,70.0345,20.99055,
42,2017,33097,SKJERVØY V,0.06,0.32,0.2,SKJERVØY,70.04375,20.94965,9.5
42,2017,37797,SKJORTNESET II,,,,STORDAL,62.37942,6.889783,
42,2017,30757,SKOG,0.09,0.06,0.13,LENVIK,69.47433,17.87868,10.1
42,2017,30117,SKOGNES,,,,SKJERVØY,69.96132,20.97827,
42,2017,27956,SKOGSEIDVATNET II,,,,FUSA,60.22656,5.875008,
42,2017,28796,SKOGSEIDVATNET III,,,,FUSA,60.2277,5.876767,
42,2017,13531,SKOGSHAVN,0,0,0.02,DYRØY,69.09098,17.51478,9.5
42,2017,33157,SKOGSHOLMEN,0.15,0.25,0.31,VEGA,65.83141,12.07053,9.8
42,2017,28296,SKOMMESVIK,0,0.03,0.04,KVÆFJORD,68.71632,16.04003,10.71
42,2017,10961,SKONSENG,0.01,0.02,0.02,VEFSN,65.80763,12.6242,11.2
42,2017,11737,SKORPA,,,,GULEN,60.94423,4.882817,
42,2017,11640,SKORPEOSEN,0,0.13,0,FJELL,60.33253,4.942783,13.2
42,2017,32877,SKORPO,0.36,1.17,0.1,OS I HORDALAND,60.17332,5.293683,12.8
42,2017,25896,SKORPO,0.14,0.48,0.03,TYSNES,59.87577,5.638817,13
42,2017,12108,SKORPO NV,,,,KVINNHERAD,59.95323,5.827133,
42,2017,12192,SKORVA,0,0.17,0.1,ASKVOLL,61.46712,5.3136,13.44
42,2017,23695,SKOTUNGNESET,0.15,0.17,0.01,STRANDA,62.34895,6.910767,12.5
42,2017,11326,SKØYEN,,,,DYRØY,69.017,17.45725,
42,2017,18657,SKREDSTIVIK,,,,HYLLESTAD,61.1567,5.133983,
42,2017,12705,SKROSEN,,,,LEKA,65.12299,11.67452,
42,2017,30997,SKRUBBHOLMEN,0.11,0.49,0.14,NÆRØY,64.80173,11.16218,10.9
42,2017,31117,SKRUBBO,,,,FUSA,60.15632,5.713217,
42,2017,15236,SKULGAMBUKT,0.33,0.47,0,TROMSØ,69.78865,19.16102,9.2
42,2017,11273,SKYSSELVIKA V,,,,FAUSKE,67.24303,15.39887,12.7
42,2017,14676,SLAPØYA N,,,,DØNNA,66.15808,12.38975,
42,2017,28096,SLÅTTENES,,,,KVINNHERAD,59.83222,5.984267,
42,2017,26155,SLÅTTHOLMEN,0.08,0.29,0,HEMNE,63.44779,8.958173,12.6
42,2017,28316,SLÅTTØYA,,,,ÅFJORD,63.99503,9.871283,
42,2017,13000,SLÅTTVIKA,0.11,0.13,0,BRØNNØY,65.52425,12.54657,11.26
42,2017,11811,SLETTEVIKA,,,,FLORA,61.50361,5.098113,
42,2017,24456,SLETTHOLMENE,,,,FRØYA,63.88,8.559183,
42,2017,30417,SLETTNESET,,,,KVÆNANGEN,70.06215,21.87533,
42,2017,10838,SLETTNESFJORD,0.27,0.41,0.24,HAMMERFEST,70.62572,23.10482,8.9
42,2017,20815,SLETTVIKA,0.14,1.14,0.26,ØRSTA,62.334,6.157667,13.2
42,2017,12712,SLOKKHOLMEN Ø,,,,LEKA,65.03989,11.4847,
42,2017,32237,SLOPPEGRUNN,0.01,0.03,0,LOPPA,70.22045,21.80907,8.7
42,2017,11939,SMAL SKAR,0.23,0.6,0,FINNØY,59.2051,5.966083,12.6
42,2017,35337,SMÅVÆR,,,,TROMSØ,69.89687,18.48627,
42,2017,29356,SMINESET N,0,0.03,0,NÆRØY,64.75597,11.54245,10.9
42,2017,12154,SMØRDALEN,0,0,0,MASFJORDEN,60.8675,5.55215,13
42,2017,27476,SOLHEIM,0.04,0.07,0.93,KARLSØY,69.83117,19.52038,9.7
42,2017,11605,SOLØY Ø,0.02,0.3,0.02,FITJAR,59.90708,5.159833,13.6
42,2017,13291,SOLØYA,,,,FLAKSTAD,68.00442,13.18142,
42,2017,27436,SOLVÆRET,,,,SMØLA,63.255,7.856933,
42,2017,13032,SØLVØYANE,,,,BØMLO,59.60952,5.133367,
42,2017,10276,SOMMARBUKT,0.01,0.02,0.05,ALTA,70.07703,22.66618,8
42,2017,19915,SOMMERFJØSSLETTA,,,,SKJERVØY,70.06592,20.80122,
42,2017,23375,SØREVIK,0.12,0.24,0.15,HØYANGER,61.09998,5.729967,12.1
42,2017,15375,SØRØYFLESA,0,0.07,0.02,FRØYA,63.98405,9.057067,12.7
42,2017,35318,SORTEVIKA,,,,DYRØY,69.0188,17.52007,
42,2017,36017,SØRVÆRET,0.07,0.17,0,HERØY I NORDLAND,65.88035,11.93045,11.9
42,2017,13936,SØRVIKA,,,,HADSEL,68.47335,15.22263,
42,2017,13915,SØRVIKVÅGEN,,,,VIKNA,64.91029,11.31002,
42,2017,13865,SPERGITTKLUBBEN,,,,SØR-VARANGER,69.76477,30.41225,
42,2017,34297,STABBEN,0.35,0.2,0,TJELDSUND,68.40072,16.21698,10.7
42,2017,28896,STANGHOLMEN,0,0,0.02,RØDØY,66.61825,12.95458,10.8
42,2017,32697,STEILO,0.26,0.26,0.01,HADSEL,68.51185,14.95163,11
42,2017,30537,STEINFLESA,0.06,0.04,0,LEKA,65.1345,11.51565,11.96
42,2017,13708,STEINVIK,0,0.03,0.02,FLORA,61.56527,5.31025,12.6
42,2017,10825,STEINVIKNES,0.01,0,0,LOPPA,70.1517,22.31267,9.5
42,2017,37577,STEVIKA,,,,NÆRØY,64.96772,12.1263,
42,2017,13290,STIGVIKA,0.26,0.17,0.03,GILDESKÅL,67.06885,14.07613,11.4
42,2017,11525,STILLE S,,,,AUSTEVOLL,60.08255,5.1457,
42,2017,31217,STOKKASJØEN,0,0.02,0.02,VEVELSTAD,65.78271,12.59232,11.1
42,2017,19015,STOKKVIKA,0.33,0.13,0.05,HEMNE,63.33353,9.180583,12.4
42,2017,11649,STOLANE,0,0.1,0.06,RADØY,60.60512,5.1257,11.4
42,2017,12965,STØLSVIK,,,,TYSVÆR,59.40543,5.710833,
42,2017,15956,STORBUKT,,,,SØR-VARANGER,69.91467,29.48708,
42,2017,10417,STORBUKTA,,,,NÆRØY,64.9591,11.6157,
42,2017,10974,STORE BUKKØY N,0.44,2.38,0.18,LURØY,66.40135,12.42072,10.9
42,2017,36099,STORE KOBBØY,0.22,0.36,1.62,MÅSØY,70.91161,25.32495,7.7
42,2017,10839,STORE KUFJORD,,,,ALTA,70.35332,23.07912,
42,2017,10281,STORE KVALFJORD,0.05,0.53,0.18,ALTA,70.32066,22.89715,8.9
42,2017,10789,STORE LERRESFJORD,,,,ALTA,70.28717,23.46683,
42,2017,11971,STORE TEISTHOLMEN Ø,0,0.02,0,SANDNES,58.97685,5.867383,13
42,2017,19519,STOREBØ,,,,AUSTEVOLL,60.09138,5.222617,
42,2017,30217,STORELVA,,,,SKJERVØY,70.13225,20.78943,
42,2017,11700,STORENESET,0.42,3.68,2.27,GULEN,60.8763,5.02805,13.9
42,2017,35817,STOREVIKA,,,,BODØ,67.18557,14.38843,
42,2017,11492,STOREVIKHOLMEN,0.08,1.13,0.08,FITJAR,59.83808,5.30565,12.4
42,2017,13593,STORFJELL,,,,VÅGAN,68.32518,15.2023,
42,2017,24535,STORHOLMEN,0.01,0,0.01,ALTA,70.34161,23.39247,8.4
42,2017,10311,STORLIA,,,,HYLLESTAD,61.20172,5.170933,
42,2017,11290,STORMNESET,,,,TYSFJORD,68.19825,16.13412,
42,2017,20776,STOROKSEN,0.33,0.54,0.3,ASKØY,60.53088,4.97325,12
42,2017,11301,STORØY NV,,,,LØDINGEN,68.42757,15.85118,
42,2017,11298,STORØYA NØ,,,,LØDINGEN,68.42792,15.86515,
42,2017,31338,STORSKJERET,0.44,0.28,0,AURE,63.26985,8.228283,12.8
42,2017,19016,STORSKOGØYA,0.02,0.13,0.01,SNILLFJORD,63.50607,9.19075,12.4
42,2017,13566,STORSKREBUKTI,0.26,5.13,0.38,LINDÅS,60.65373,5.4192,13.9
42,2017,13124,STORSTROMPAN,0,0.01,0,RØDØY,66.54563,13.41908,11.17
42,2017,13316,STORVIK,,,,LOPPA,70.14951,22.41657,
42,2017,22335,STORVIKA,,,,FRÆNA,62.80217,6.981267,
42,2017,13125,STORVIKA,,,,MELØY,66.80855,13.24233,11.1
42,2017,15461,STORVIKA,0.2,0.14,0,NORDKAPP,70.87123,25.44632,6.6
42,2017,32397,STORVIKA I SKJERSTADFJORDEN,,,,BODØ,67.20264,15.275,8.7
42,2017,10552,STORVIKA III,,,,SALANGEN,68.89622,17.48732,
42,2017,23055,STORVIKA V,,,,DYRØY,69.0433,17.36323,
42,2017,10421,STORVIKBUKTA,0,0.01,0,NÆRØY,64.92893,11.91292,9.47
42,2017,10753,STRANDMO,,,,KARLSØY,69.8813,19.43453,
42,2017,12081,STRAUMNESET,,,,JONDAL,60.22097,6.139567,
42,2017,22435,STRETARNESET,,,,HADSEL,68.67398,14.98248,
42,2017,26235,STUALAND,0.02,0.08,0.02,SVEIO,59.6088,5.5269,12.2
42,2017,11552,STUHOLMEN,0.1,0.7,0.6,SUND,60.24968,4.978117,12.5
42,2017,11206,STYRVOLLHOLMEN,,,,VESTVÅGØY,68.08102,13.62913,
42,2017,36100,SUHOLMEN,0.24,0.71,0.09,SMØLA,63.49493,8.02235,12.6
42,2017,19396,SUNDE,,,,KVINNHERAD,59.83303,5.709017,
42,2017,29376,SUNDSØY,0.02,0.04,0.1,DØNNA,66.17637,12.77028,10.7
42,2017,10798,SVARTBERGET,,,,KVÆNANGEN,70.0186,22.01832,
42,2017,11312,SVARTFJELL,0.01,0.04,0,STEIGEN,67.93948,15.50317,10.6
42,2017,31817,SVARTSKJÆR,0.11,0.37,0.13,IBESTAD,68.71893,16.7745,10
42,2017,12074,SVÅSANDNESET,,,,JONDAL,60.32422,6.318983,
42,2017,11776,SVEHOLMANE,,,,FLORA,61.55772,5.215333,
42,2017,13727,SVELLUNGEN,,,,HITRA,63.65528,9.156795,
42,2017,11813,SVINØY V,0.26,4.06,0.26,FJALER,61.30312,5.101167,13.8
42,2017,11144,SVINVÆR,,,,RØDØY,66.76923,13.17063,10.9
42,2017,22955,SVOLLANDSNESET,0.07,0.2,0.01,VINDAFJORD,59.685,5.589917,14
42,2017,13196,SYLTØY,0,0.04,0.03,SUND,60.3046,4.96645,13.2
42,2017,10309,SYRTANGEN,0.1,0.35,0.1,ØYGARDEN,60.46773,4.968667,13.1
42,2017,20577,TANDRANESET,,,,SULDAL,59.32653,6.067967,
42,2017,10582,TARMEVIKODDEN,0.01,0.14,0,FLEKKEFJORD,58.21977,6.685633,13.5
42,2017,16165,TÅRNVIKA,,,,BODØ,67.57281,15.12868,
42,2017,26575,TEIGANE,0,0,0,SULDAL,59.52033,6.337233,11.6
42,2017,13057,TEIGLAND I,0.01,0.53,0.07,KVAM,60.17935,5.959917,12.5
42,2017,11832,TEISTHALSEN,,,,FLORA,61.61243,4.81315,
42,2017,29776,TEKSMONA,,,,MELØY,66.86842,13.60138,
42,2017,21755,TENDALSVIK,0,0.3,0.01,ETNE,59.73605,5.884,13.6
42,2017,12449,TENNØYA,0,0.07,0.06,FRØYA,63.80503,8.4444,13.04
42,2017,13644,TEPSTAD,,,,OSTERØY,60.55303,5.385317,
42,2017,12268,TERNINGEN,0.15,0.12,0,MIDSUND,62.6431,6.54805,12.8
42,2017,12662,TERNSKJÆRET II,0,0,0,NÆRØY,64.77713,11.63977,10.6
42,2017,15517,TINNLANDET,,,,HAMMERFEST,70.5295,23.2287,
42,2017,25815,TITTELSNES,0.48,0.97,0,SVEIO,59.72365,5.534383,12.64
42,2017,28916,TJÆRNHOLMEN,,,,VIKNA,64.84486,10.81205,
42,2017,20075,TJAJNELUOKTA,0,0,0,TYSFJORD,67.89243,16.23672,10.5
42,2017,31077,TJUKKENESET,,,,EVENES,68.47487,17.30393,
42,2017,10054,TOBBEHOLMANE,0,0.32,0.07,AUSTEVOLL,60.02432,5.30815,12.8
42,2017,11414,TOFTEN,0.18,0.08,0.03,ØKSNES,68.86898,15.30105,10.2
42,2017,10635,TOKNEBUKTNESET,0.03,0.14,0.02,KVALSUND,70.5734,24.07473,7.7
42,2017,17575,TOLLAKSHOLMEN,0.01,0.05,0,BOKN,59.2522,5.390517,12.7
42,2017,26055,TOPPSUND Ø,,,,HARSTAD,68.86372,16.40303,
42,2017,30236,TOPPSUND V,0.08,0.04,0.01,HARSTAD,68.9112,16.28933,10.91
42,2017,30837,TORANGSKJERET,0,0.1,0.18,AUSTEVOLL,60.13018,5.176033,14.5
42,2017,30177,TORGERHAUGEN,,,,NÆRØY,64.89295,11.76302,
42,2017,12671,TORLANDSØYA,,,,NÆRØY,64.78018,11.45475,
42,2017,12114,TORSNESET,,,,VINDAFJORD,59.51827,5.820033,
42,2017,33677,TORVUND,0.07,0.4,0.37,HØYANGER,61.145,5.656183,12.4
42,2017,34917,TOSEN,,,,BINDAL,65.24944,12.81528,
42,2017,31497,TOSKA N,0.19,2.9,0.16,RADØY,60.66987,4.9172,13.8
42,2017,14018,TOSKA S,,,,RADØY,60.63383,4.996883,
42,2017,29336,TRÆLSØYOSEN,0.19,0.62,0.1,AUSTEVOLL,60.1178,5.2702,13.2
42,2017,30517,TRÆLVIKA,0,0,0.05,LENVIK,69.51895,17.69593,10.7
42,2017,32717,TRANØYA N,0.27,1.13,0.2,BJUGN,63.87203,9.769783,11.23
42,2017,10090,TRELLEVIKA,,,,ASKVOLL,61.37038,5.0185,
42,2017,17077,TRETTEVIK,,,,LENVIK,69.51037,18.0218,
42,2017,32857,TRETTHOLMOSEN,,,,BØMLO,59.83193,5.0801,
42,2017,30560,TRISTEINEN,0.41,0.51,0.05,BJUGN,63.86895,9.6204,11.8
42,2017,13677,TRØAN BJØRKLIBUKTA,,,,HEMNE,63.33155,9.1231,
42,2017,13594,TROLLØYA SV,0,0,0,SORTLAND,68.70438,15.0148,10.2
42,2017,11351,TROLLVIKA,,,,SKÅNLAND,68.71678,17.02287,
42,2017,10332,TROMMO,0.7,2.33,0.08,KVINNHERAD,60.08243,6.080067,12.9
42,2017,10147,TUNGESVIK,,,,ETNE,59.74193,5.98095,
42,2017,25855,TUSSØYA,,,,TROMSØ,69.66272,18.17765,
42,2017,10821,TUVAN,0.12,0.29,0.09,ALTA,70.09161,22.70898,8.1
42,2017,14081,TVEIT,0,0.27,0.23,HYLLESTAD,61.11008,5.340483,13
42,2017,30717,TVEITNES,,,,KVAM,60.41418,6.402,
42,2017,12077,TVEITNESVIK,0.5,2.05,0.05,KVINNHERAD,60.10592,6.20525,12.8
42,2017,13562,UFØRO,0,0.62,0.08,STORD,59.87835,5.526917,13.13
42,2017,10570,ULØY,0.03,0,0.02,NORDREISA,69.79892,20.64193,9.1
42,2017,10726,ULØYBUKT,0,0,0.79,SKJERVØY,69.86008,20.71397,9
42,2017,13570,ULVÆRHOLMEN,0.12,1.46,0.03,HITRA,63.59822,9.116583,12
42,2017,13720,ULVAN,,,,HITRA,63.67223,9.0329,
42,2017,12102,ULVENESET,,,,KVINNHERAD,59.99282,5.858417,
42,2017,32437,URDA,,,,SURNADAL,63.00053,8.325633,
42,2017,32837,URSBAKKEN,,,,NÆRØY,64.77225,11.17833,
42,2017,11533,USHOLMSVIKA,,,,SUND,60.1749,5.0917,
42,2017,24135,UTÅKER,0.1,0.37,0.01,KVINNHERAD,59.77833,5.9024,13.1
42,2017,14678,UVÅG,0,0,0,BØ I NORDLAND,68.6599,14.67875,10.4
42,2017,35517,VADHOLMEN,0.19,0.37,0.03,ØYGARDEN,60.695,4.761117,13.31
42,2017,22495,VÆRNES,,,,TORSKEN,69.33597,17.09365,
42,2017,24197,VÆRØYA Ø,0.03,0.34,0.08,HITRA,63.41597,8.483883,12.8
42,2017,10677,VAGNFJORDEN,,,,SØR-VARANGER,69.91855,29.5878,
42,2017,10091,VÅGSØYA,,,,FLORA,61.49038,5.0247,
42,2017,31557,VALØYAN,0.01,0.01,0.02,FRØYA,63.81735,8.462483,13.05
42,2017,13522,VALVIKA,,,,NESNA,66.29887,12.81383,
42,2017,35657,VARDEN,0.37,0.77,0.12,HITRA,63.63572,9.186467,12.68
42,2017,10968,VARDSKJÆR Ø,,,,LURØY,66.35845,12.48502,
42,2017,36337,VARDSKJÆRET S,0.14,3.74,0.22,LURØY,66.35017,12.46927,11.6
42,2017,36317,VARHOLMEN,0,0,0,BRØNNØY,65.54905,12.12642,11.5
42,2017,12303,VARTDAL,,,,ØRSTA,62.3067,6.092083,
42,2017,11137,VASSDALSVIK,,,,MELØY,66.80788,13.56575,
42,2017,37717,VASSGÅSHOLMEN,,,,AGDENES,63.59217,9.339833,
42,2017,18117,VASSVIKA,0,0.01,0.02,LOPPA,70.27188,21.6898,9.4
42,2017,11728,VATNØY,,,,GULEN,60.96527,4.907533,
42,2017,13047,VÅTVIKA,,,,VÅGAN,68.22768,14.80522,
42,2017,10652,VEDBOTN,0,0,0,NORDKAPP,70.7514,25.63698,7.9
42,2017,12678,VEDØYA,0,0,0,FOSNES,64.60743,11.35482,11.1
42,2017,10504,VEDVIKA,,,,BØ I NORDLAND,68.77659,14.61386,
42,2017,11303,VEGGFJELL,0,0,0,HAMARØY,67.962,15.8058,10.6
42,2017,32637,VEIDNES,0.1,0.05,7.7,BÅTSFJORD,70.54017,30.13612,7.7
42,2017,32337,VEIESUND,,,,FLORA,61.57207,5.0466,
42,2017,35838,VENGSØY,0.18,0.28,0,TROMSØ,69.8227,18.51875,10.1
42,2017,13837,VERPEIDE,,,,VÅGSØY,61.90222,5.209233,
42,2017,11385,VESTNES,0.17,0.64,0.2,HARSTAD,68.98158,16.48835,11.13
42,2017,12885,VIKAGEILEN,,,,KRISTIANSUND,63.07578,7.906067,
42,2017,13704,VIKANE,0.2,2.48,0.98,MASFJORDEN,60.7125,5.403633,13.7
42,2017,27315,VIKANE 1,,,,JONDAL,60.26125,6.225083,
42,2017,36717,VINDHAMMARNESET,0.12,0.71,1.37,BERG,69.46841,17.60618,10.5
42,2017,11252,VINDHAMMEREN,0.1,0.04,0.02,BØ I NORDLAND,68.78065,14.59325,11.3
42,2017,12839,VINDSNES,,,,NORDDAL,62.28505,7.279633,12.4
42,2017,13226,VINDSVIK,0.18,0.85,0.03,HJELMELAND,59.29982,6.322467,12.61
42,2017,19235,VINDVIKA,,,,BODØ,67.53316,15.16558,10.61
42,2017,11315,VINKFJORDEN,,,,STEIGEN,67.72638,15.37989,
42,2017,10616,VINNALANDET,0.06,0.13,0.02,HAMMERFEST,70.57315,23.39788,8.6
42,2017,11925,VINTRAVIKI,0.02,0.05,0.02,SULDAL,59.39938,6.020533,12.8
42,2017,13246,VOLDNES,0.16,0.99,0.05,HERØY I MØRE OG ROMSDAL,62.2097,5.7849,12.96
42,2017,12334,VORAVIKA,,,,SANDE I MØRE OG ROMSDAL,62.23342,5.486117,
42,2017,36237,VORTERØYA,,,,SKJERVØY,69.96655,20.61528,
42,2017,17495,VULLUM,,,,HALSA,63.04895,8.21635,12.2
42,2017,29936,YSTADNESET,,,,KVINNHERAD,59.97793,5.77565,
42,2017,13306,YSTEVIKA,0.41,0.63,0.04,SKÅNLAND,68.69432,17.05325,9.9
42,2017,13016,YTRE HAMNEBUKT,,,,KVÆNANGEN,70.04923,21.81167,
42,2017,24155,YTRE JØVIK,0.2,0.38,0.71,BERG,69.42052,17.33755,9.56
42,2017,32617,YTRE KOVEN,0.06,0.11,0,ALTA,70.14212,22.89257,8.8
42,2017,24175,YTRE LAVOLLSFJORD,0.28,0.22,0.19,BERG,69.41946,17.28757,9.57
42,2017,20176,YTRE SIMANES,,,,ALTA,69.9481,23.09233,
42,2017,11338,YTRE STRÆTE,0.1,0.08,0.06,SKÅNLAND,68.71948,17.13882,10.35
42,2017,29417,YTRE VASSHOLMEN,0.48,3.05,0.44,HERØY I NORDLAND,65.93497,12.13913,10.5
42,2017,31319,,,,,,,,
42,2017,13012,,,,,,,,
42,2017,12377,,,,,,,,
42,2017,25575,,,,,,,,
42,2017,20566,,,,,,,,
42,2017,13117,,,,,,,,
42,2017,11305,,,,,,,,
42,2017,18270,,,,,,,,
42,2017,11486,,,,,,,,
42,2017,10264,,,,,,,,
42,2017,10970,,,,,,,,
42,2017,12612,,,,,,,,
42,2017,24375,,,,,,,,
42,2017,10995,,,,,,,,
42,2017,29436,,,,,,,,
42,2017,11204,,,,,,,,
42,2017,10875,,,,,,,,
42,2017,11982,,,,,,,,
42,2017,13105,,,,,,,,
42,2017,11514,,,,,,,,
42,2017,13231,,,,,,,,
42,2017,17595,,,,,,,,
42,2017,12066,,,,,,,,
42,2017,34337,,,,,,,,
42,2017,13792,,,,,,,,
42,2017,10072,,,,,,,,
42,2017,19678,,,,,,,,
42,2017,13775,,,,,,,,
42,2017,12723,,,,,,,,
42,2017,10834,,,,,,,,
42,2017,27536,,,,,,,,
42,2017,21955,,,,,,,,
42,2017,11645,,,,,,,,
42,2017,31639,,,,,,,,
42,2017,30875,,,,,,,,
42,2017,10029,,,,,,,,
42,2017,25656,,,,,,,,
42,2017,11556,,,,,,,,
42,2017,32733,,,,,,,,
42,2017,25655,,,,,,,,
42,2017,10736,,,,,,,,
42,2017,12802,,,,,,,,
42,2017,26275,,,,,,,,
42,2017,26395,,,,,,,,
42,2017,11274,,,,,,,,
42,2017,10511,,,,,,,,
42,2017,10971,,,,,,,,
42,2017,12027,,,,,,,,
42,2017,34227,,,,,,,,
42,2017,11545,,,,,,,,
42,2017,18015,,,,,,,,
42,2017,10327,,,,,,,,
42,2017,13565,,,,,,,,
42,2017,28256,,,,,,,,
42,2017,13253,,,,,,,,
42,2017,11216,,,,,,,,
42,2017,20766,,,,,,,,
42,2017,13547,,,,,,,,
42,2017,12701,,,,,,,,
42,2017,11566,,,,,,,,
42,2017,30737,,,,,,,,
42,2017,12695,,,,,,,,
42,2017,20314,,,,,,,,
42,2017,10506,,,,,,,,
42,2017,11596,,,,,,,,
42,2017,13513,,,,,,,,
42,2017,12221,,,,,,,,
42,2017,10326,,,,,,,,
42,2017,12454,,,,,,,,
42,2017,19679,,,,,,,,
42,2017,19336,,0.01,0.08,0,,,,13.2
42,2017,20073,,,,,,,,
42,2017,13944,,,,,,,,
42,2017,10400,,,,,,,,
42,2017,14303,,,,,,,,
42,2017,11677,,,,,,,,
42,2017,11428,,,,,,,,
42,2017,13652,,,,,,,,
42,2017,23136,,,,,,,,
42,2017,11356,,,,,,,,
42,2017,32347,,,,,,,,
42,2017,12206,,,,,,,,
42,2017,26738,,,,,,,,
42,2017,15856,,,,,,,,
42,2017,19675,,,,,,,,
42,2017,31037,,,,,,,,
42,2017,11538,,,,,,,,
42,2017,11959,,,,,,,,
42,2017,27556,,,,,,,,
42,2017,13491,,,,,,,,
42,2017,11522,,,,,,,,
42,2017,12708,,,,,,,,
42,2017,11059,,,,,,,,
42,2017,24958,,,,,,,,
42,2017,11503,,,,,,,,
42,2017,31447,,,,,,,,
42,2017,33307,,,,,,,,
42,2017,10545,,,,,,,,
42,2017,21407,,,,,,,,
42,2017,13273,,,,,,,,
42,2017,13867,,0.15,0.08,0.17,,,,13
42,2017,29029,,,,,,,,
42,2017,10964,,,,,,,,
42,2017,14882,,,,,,,,
42,2017,10960,,,,,,,,
42,2017,29315,,,,,,,,
42,2017,12126,,,,,,,,
42,2017,32957,,,,,,,,
42,2017,11651,,0.01,0.16,0.11,,,,12
42,2017,31977,,,,,,,,
42,2017,14765,,,,,,,,
42,2017,18698,,,,,,,,
42,2017,23432,,,,,,,,
42,2017,12800,,,,,,,,
42,2017,13892,,,,,,,,
42,2017,25455,,,,,,,,
42,2017,26035,,,,,,,,
42,2017,11765,,,,,,,,
42,2017,11858,,,,,,,,
42,2017,19153,,,,,,,,
42,2017,27075,,,,,,,,
42,2017,19816,,,,,,,,
42,2017,21517,,,,,,,,
42,2017,34307,,,,,,,,
42,2017,20579,,,,,,,,
42,2017,0,,,,,,,,
42,2017,10042,,,,,,,,
42,2017,10061,,,,,,,,
42,2017,10067,,,,,,,,
42,2017,10070,,,,,,,,
42,2017,10093,,,,,,,,
42,2017,10120,,,,,,,,
42,2017,10121,,,,,,,,
42,2017,10177,,,,,,,,
42,2017,10215,,,,,,,,
42,2017,10228,,,,,,,,
42,2017,10258,,,,,,,,
42,2017,10283,,,,,,,,
42,2017,10286,,,,,,,,
42,2017,10301,,,,,,,,
42,2017,10363,,,,,,,,
42,2017,10365,,,,,,,,
42,2017,10369,,,,,,,,
42,2017,10390,,,,,,,,
42,2017,10393,,,,,,,,
42,2017,10394,,,,,,,,
42,2017,10418,,,,,,,,
42,2017,10423,,,,,,,,
42,2017,10430,,,,,,,,
42,2017,10491,,,,,,,,
42,2017,10510,,,,,,,,
42,2017,10587,,,,,,,,
42,2017,10633,,,,,,,,
42,2017,10718,,,,,,,,
42,2017,10720,,,,,,,,
42,2017,10802,,,,,,,,
42,2017,10805,,,,,,,,
42,2017,10812,,,,,,,,
42,2017,10836,,,,,,,,
42,2017,10914,,,,,,,,
42,2017,10963,,,,,,,,
42,2017,11001,,,,,,,,
42,2017,11004,,,,,,,,
42,2017,11077,,,,,,,,
42,2017,11117,,,,,,,,
42,2017,11125,,,,,,,,
42,2017,11194,,,,,,,,
42,2017,11196,,,,,,,,
42,2017,11207,,,,,,,,
42,2017,11219,,,,,,,,
42,2017,11291,,,,,,,,
42,2017,11317,,,,,,,,
42,2017,11327,,,,,,,,
42,2017,11329,,,,,,,,
42,2017,11341,,,,,,,,
42,2017,11345,,,,,,,,
42,2017,11388,,,,,,,,
42,2017,11444,,,,,,,,
42,2017,11461,,,,,,,,
42,2017,11475,,,,,,,,
42,2017,11494,,,,,,,,
42,2017,11496,,,,,,,,
42,2017,11499,,,,,,,,
42,2017,11558,,,,,,,,
42,2017,11562,,,,,,,,
42,2017,11564,,,,,,,,
42,2017,11712,,,,,,,,
42,2017,11718,,,,,,,,
42,2017,11767,,,,,,,,
42,2017,11792,,,,,,,,
42,2017,11798,,,,,,,,
42,2017,11812,,,,,,,,
42,2017,11817,,,,,,,,
42,2017,11863,,,,,,,,
42,2017,11887,,,,,,,,
42,2017,11898,,,,,,,,
42,2017,11934,,,,,,,,
42,2017,11938,,,,,,,,
42,2017,11942,,,,,,,,
42,2017,11953,,,,,,,,
42,2017,11960,,,,,,,,
42,2017,11967,,,,,,,,
42,2017,12080,,,,,,,,
42,2017,12084,,,,,,,,
42,2017,12105,,,,,,,,
42,2017,12122,,,,,,,,
42,2017,12123,,,,,,,,
42,2017,12151,,,,,,,,
42,2017,12186,,,,,,,,
42,2017,12211,,,,,,,,
42,2017,12225,,,,,,,,
42,2017,12238,,,,,,,,
42,2017,12246,,,,,,,,
42,2017,12249,,,,,,,,
42,2017,12253,,,,,,,,
42,2017,12255,,,,,,,,
42,2017,12264,,,,,,,,
42,2017,12331,,,,,,,,
42,2017,12333,,,,,,,,
42,2017,12390,,,,,,,,
42,2017,12396,,,,,,,,
42,2017,12398,,,,,,,,
42,2017,12430,,,,,,,,
42,2017,12434,,,,,,,,
42,2017,12448,,,,,,,,
42,2017,12457,,,,,,,,
42,2017,12487,,,,,,,,
42,2017,12499,,,,,,,,
42,2017,12512,,,,,,,,
42,2017,12516,,,,,,,,
42,2017,12522,,,,,,,,
42,2017,12538,,,,,,,,
42,2017,12539,,,,,,,,
42,2017,12540,,,,,,,,
42,2017,12542,,,,,,,,
42,2017,12543,,,,,,,,
42,2017,12544,,,,,,,,
42,2017,12547,,,,,,,,
42,2017,12548,,,,,,,,
42,2017,12549,,,,,,,,
42,2017,12550,,,,,,,,
42,2017,12571,,,,,,,,
42,2017,12597,,,,,,,,
42,2017,12598,,,,,,,,
42,2017,12622,,,,,,,,
42,2017,12628,,,,,,,,
42,2017,12629,,,,,,,,
42,2017,12676,,,,,,,,
42,2017,12729,,,,,,,,
42,2017,12732,,,,,,,,
42,2017,12739,,,,,,,,
42,2017,12742,,,,,,,,
42,2017,12743,,,,,,,,
42,2017,12763,,,,,,,,
42,2017,12764,,,,,,,,
42,2017,12765,,,,,,,,
42,2017,12769,,,,,,,,
42,2017,12770,,,,,,,,
42,2017,12771,,,,,,,,
42,2017,12773,,,,,,,,
42,2017,12774,,,,,,,,
42,2017,12778,,,,,,,,
42,2017,12779,,,,,,,,
42,2017,12827,,,,,,,,
42,2017,12860,,,,,,,,
42,2017,12865,,,,,,,,
42,2017,12875,,,,,,,,
42,2017,12888,,,,,,,,
42,2017,12893,,,,,,,,
42,2017,12901,,,,,,,,
42,2017,12959,,,,,,,,
42,2017,12974,,,,,,,,
42,2017,12995,,,,,,,,
42,2017,13011,,,,,,,,
42,2017,13053,,,,,,,,
42,2017,13085,,,,,,,,
42,2017,13091,,,,,,,,
42,2017,13108,,,,,,,,
42,2017,13121,,,,,,,,
42,2017,13141,,,,,,,,
42,2017,13166,,,,,,,,
42,2017,13167,,,,,,,,
42,2017,13173,,,,,,,,
42,2017,13174,,,,,,,,
42,2017,13175,,,,,,,,
42,2017,13189,,,,,,,,
42,2017,13265,,,,,,,,
42,2017,13278,,,,,,,,
42,2017,13286,,,,,,,,
42,2017,13292,,,,,,,,
42,2017,13308,,,,,,,,
42,2017,13315,,,,,,,,
42,2017,13502,,,,,,,,
42,2017,13506,,,,,,,,
42,2017,13516,,,,,,,,
42,2017,13525,,,,,,,,
42,2017,13551,,,,,,,,
42,2017,13568,,,,,,,,
42,2017,13571,,,,,,,,
42,2017,13574,,,,,,,,
42,2017,13575,,,,,,,,
42,2017,13583,,,,,,,,
42,2017,13598,,,,,,,,
42,2017,13614,,,,,,,,
42,2017,13620,,,,,,,,
42,2017,13626,,,,,,,,
42,2017,13632,,,,,,,,
42,2017,13650,,,,,,,,
42,2017,13666,,,,,,,,
42,2017,13715,,,,,,,,
42,2017,13717,,,,,,,,
42,2017,13724,,,,,,,,
42,2017,13747,,,,,,,,
42,2017,13789,,,,,,,,
42,2017,13840,,,,,,,,
42,2017,13856,,,,,,,,
42,2017,13890,,,,,,,,
42,2017,13895,,,,,,,,
42,2017,13896,,,,,,,,
42,2017,13898,,,,,,,,
42,2017,13916,,,,,,,,
42,2017,14176,,,,,,,,
42,2017,14682,,,,,,,,
42,2017,14837,,,,,,,,
42,2017,14979,,,,,,,,
42,2017,15135,,,,,,,,
42,2017,15518,,,,,,,,
42,2017,15519,,,,,,,,
42,2017,15595,,,,,,,,
42,2017,16215,,,,,,,,
42,2017,16335,,,,,,,,
42,2017,17135,,,,,,,,
42,2017,17175,,,,,,,,
42,2017,17755,,,,,,,,
42,2017,17860,,,,,,,,
42,2017,17935,,,,,,,,
42,2017,18002,,,,,,,,
42,2017,18175,,,,,,,,
42,2017,18257,,,,,,,,
42,2017,18659,,,,,,,,
42,2017,18876,,,,,,,,
42,2017,19515,,,,,,,,
42,2017,19578,,,,,,,,
42,2017,19800,,,,,,,,
42,2017,20018,,,,,,,,
42,2017,20397,,,,,,,,
42,2017,20915,,,,,,,,
42,2017,21376,,,,,,,,
42,2017,21520,,,,,,,,
42,2017,21775,,,,,,,,
42,2017,21956,,,,,,,,
42,2017,22115,,,,,,,,
42,2017,22235,,,,,,,,
42,2017,22695,,,,,,,,
42,2017,22735,,,,,,,,
42,2017,23315,,,,,,,,
42,2017,23677,,,,,,,,
42,2017,23815,,,,,,,,
42,2017,24235,,,,,,,,
42,2017,24537,,,,,,,,
42,2017,24935,,,,,,,,
42,2017,25395,,,,,,,,
42,2017,25955,,,,,,,,
42,2017,25975,,,,,,,,
42,2017,26036,,,,,,,,
42,2017,26755,,,,,,,,
42,2017,26975,,,,,,,,
42,2017,27295,,,,,,,,
42,2017,27456,,,,,,,,
42,2017,27596,,,,,,,,
42,2017,27656,,,,,,,,
42,2017,27696,,,,,,,,
42,2017,28056,,,,,,,,
42,2017,28616,,,,,,,,
42,2017,29216,,,,,,,,
42,2017,29556,,,,,,,,
42,2017,29676,,,,,,,,
42,2017,30016,,,,,,,,
42,2017,30056,,,,,,,,
42,2017,30096,,,,,,,,
42,2017,30237,,,,,,,,
42,2017,31017,,,,,,,,
42,2017,31079,,,,,,,,
42,2017,31337,,,,,,,,
42,2017,31417,,,,,,,,
42,2017,32177,,,,,,,,
42,2017,33397,,,,,,,,
42,2017,33497,,,,,,,,
42,2017,34157,,,,,,,,
42,2017,34438,,,,,,,,
42,2017,34737,,,,,,,,
42,2017,42437,,,,,,,,
42,2017,28976,,0.31,0.32,0,,,,11.9
41,2017,33437,ÅDNAHOLMEN,,,,FINNØY,59.27807,5.777617,
41,2017,30196,ÅDNEKVAMME,,,,MASFJORDEN,60.83117,5.353233,
41,2017,35297,ÅDNØY SØ,,,,SANDNES,58.91455,6.028583,
41,2017,30977,ÆSØYA,,,,VESTVÅGØY,68.10487,13.79007,
41,2017,15196,AGA Ø,0,0.38,0.05,BØMLO,59.8451,5.261367,13.34
41,2017,10331,ÅKRE,0.45,0.53,0.08,KVINNHERAD,60.11243,6.042483,13.19
41,2017,12067,ALDALEN,0.26,0.93,0.03,OS I HORDALAND,60.24995,5.571917,10
41,2017,12982,ALDEØYNA,0.27,1.25,0.18,ASKVOLL,61.31025,4.76905,13.2
41,2017,10298,ÅLFORO,0.15,0.91,0.5,FITJAR,59.8665,5.244133,13.1
41,2017,11756,ALLERSHOLMEN,,,,AUSTRHEIM,60.77465,4.8536,
41,2017,13271,ALMURDEN,,,,FLATANGER,64.43324,10.68095,
41,2017,12086,ALSÅKERVIK,0,0.03,0.03,KVINNHERAD,59.7601,6.074183,14.36
41,2017,11416,ALSVÅG,,,,ØKSNES,68.9027,15.28675,
41,2017,13227,ALTANESET,0,0.2,0,FUSA,60.24712,5.63475,13.73
41,2017,11179,ALTEROSEN,0.1,0.2,0.2,VÅGAN,68.20737,14.44687,10.7
41,2017,10319,ÅLVORA,,,,FLORA,61.58403,5.133633,
41,2017,11330,ÅMUNDSVIKA,0.1,0.38,0.05,GRATANGEN,68.72655,17.34348,10
41,2017,11513,ANDAL,0.07,0.13,0.17,BØMLO,59.63633,5.247717,14
41,2017,33457,ÅNDERBAKK,,,,STEIGEN,67.75468,15.70438,
41,2017,11339,ÅNDERKLEIVA,0,0,0.04,IBESTAD,68.92402,17.14982,10
41,2017,32277,ANDHOLMEN 1,0.16,1.33,0.39,SMØLA,63.46978,7.8556,12.8
41,2017,32297,ANDHOLMEN 2,0.3,1.3,0.25,SMØLA,63.46745,7.847167,12.8
41,2017,33257,ANDREGGRUNNEN,,,,FINNØY,59.23888,5.740617,
41,2017,30156,ANEVIK,0.06,0.07,0,STEIGEN,68.00592,15.26433,11.2
41,2017,13563,ANGELSKÅR,,,,OSTERØY,60.52442,5.3568,
41,2017,13518,ANGSTAUREN,,,,TROMSØ,69.69534,18.17027,
41,2017,32017,ÅNHOLMEN,0.01,0.03,0,FOSNES,64.7198,11.46168,11.7
41,2017,11793,ÅNNAHOLMANE,0.05,0.2,0.15,ASKVOLL,61.28427,4.725433,13.2
41,2017,29816,APALVIKNESET,0.2,0.33,0,JONDAL,60.14622,6.121133,12.97
41,2017,29416,ÅPENVIK,0.06,0.15,0.01,UNJARGGA-NESSEBY,70.02058,29.21533,6.8
41,2017,12085,APLAVIKA,0.02,0.08,0.06,KVAM,60.25865,6.055333,13.4
41,2017,11364,ÅRBERG,0.51,0.5,0.13,TORSKEN,69.1959,16.91595,10.7
41,2017,24695,ÅRNES,0,0,0,NAMSOS,64.5961,11.27342,12.1
41,2017,11119,ARNØYSUNDET,,,,GILDESKÅL,67.14978,13.991,
41,2017,10735,ÅRØYA,0.01,0.03,0.19,LYNGEN,69.66327,20.31492,8.7
41,2017,35797,ÅRSETFJORDEN,,,,NÆRØY,65.00819,11.74642,
41,2017,12668,ASTRIDHOLMEN,,,,NÆRØY,64.80798,11.54258,
41,2017,20496,ATLATVEIT,,,,FINNØY,59.22773,5.984233,
41,2017,14016,AUENES,,,,LILLESAND,58.14027,8.2553,14.1
41,2017,13254,AUKAN,0,0.38,0,AVERØY,63.0603,7.594283,13.11
41,2017,32077,AUKAN,,,,AURE,63.16227,8.309633,
41,2017,12988,AUKRASANDEN,0.48,0.85,0,AUKRA,62.78342,6.92605,12.89
41,2017,10870,AUNHOLMEN Ø,,,,VEVELSTAD,65.7061,12.62273,
41,2017,12357,AURSØYSVA,,,,FRØYA,63.80197,8.910767,
41,2017,10275,AUSKARNES Ø,,,,LOPPA,70.14145,22.3542,
41,2017,11800,AUSTNESTÅA,0.02,0.22,0.07,FLORA,61.49082,5.171167,12.87
41,2017,26795,AUSTVIKA,0,0,0.01,FLATANGER,64.41853,10.69603,11.96
41,2017,13572,BADSTUVIKA,0,0.07,0.05,HITRA,63.53398,9.1469,13.1
41,2017,12730,BÅFJORDEN,,,,NÆRØY,64.94988,11.5733,
41,2017,29016,BÅFJORDSTRANDA,,,,NÆRØY,64.96465,11.59273,
41,2017,13341,BAKJESTRANDA,,,,BREMANGER,61.81998,4.940183,
41,2017,19395,BAKKA,,,,KVAM,60.23498,6.006217,
41,2017,32537,BALTSFJORD,0.08,0.15,4.2,LENVIK,69.5463,17.7697,10.9
41,2017,13305,BARBOGEN,,,,TORSKEN,69.36843,17.0281,
41,2017,13873,BARLINGEBOTTEN,2.46,1.2,0.19,MASFJORDEN,60.86308,5.364017,13.01
41,2017,11749,BÅRØY,0.05,0.67,0.13,GULEN,60.94587,4.845383,14.1
41,2017,31877,BARØYA,,,,NAMSOS,64.62117,11.23413,
41,2017,10862,BÅSEN,0.7,1.6,0.3,BINDAL,65.11767,12.32147,11.7
41,2017,18235,BASTLI,,,,HJELMELAND,59.2694,6.193083,
41,2017,13845,BEITVEIT,0.24,0.45,0.01,SELJE,62.14122,5.32675,13.61
41,2017,25055,BEKKSNESET,0,0.3,0.19,HYLLESTAD,61.07662,5.38595,13.29
41,2017,12095,BERGADALEN,0,0.26,0.1,KVAM,60.1216,5.908883,13.1
41,2017,20396,BERGSNES V,0,0.01,0.01,ALTA,70.22971,23.33612,8.4
41,2017,30397,BERGSØY,0.01,0.01,0,STEIGEN,67.897,15.15785,11.8
41,2017,13872,BERGSVIK,,,,MASFJORDEN,60.86295,5.3474,
41,2017,11241,BERGVIKODDEN,,,,HADSEL,68.57475,14.85088,
41,2017,11930,BJELKAVIK,0.15,0.32,0.02,SULDAL,59.45165,5.991917,14.1
41,2017,12178,BJØNNSPJOTNESET,0.01,0.08,0.03,HØYANGER,61.09808,5.82545,14.2
41,2017,31738,BJØRGA,,,,SØRREISA,69.15398,17.94842,
41,2017,12625,BJØRGAN,0.22,2.95,0.08,FLATANGER,64.59268,10.90833,11.9
41,2017,31317,BJØRKVIK,,,,TYSFJORD,68.02925,16.13142,
41,2017,22455,BJØRLYKKESTRANDA,0,0.09,0.04,VANYLVEN,62.16655,5.5954,13.4
41,2017,12308,BJØRNDAL,0,0.08,0.08,ØRSTA,62.27488,6.00285,13.8
41,2017,23436,BJØRNHOLMEN,0.02,0.08,0.18,SOLUND,61.20635,4.938083,15
41,2017,34997,BJØRNØYA,0,0.22,0.04,BODØ,67.4164,14.42867,11.7
41,2017,11340,BJØRNSTEIN,,,,IBESTAD,68.89236,17.11023,
41,2017,29458,BLÅMANNSVIK,,,,TROMSØ,69.73064,18.65358,
41,2017,19255,BLÅSENBORGNESET,,,,SØR-VARANGER,69.73305,30.1079,
41,2017,12156,BLOM,,,,OSTERØY,60.43658,5.564833,
41,2017,31857,BLOMSØRÅSA,,,,ALSTAHAUG,65.85637,12.31183,
41,2017,24915,BØBUKTA,,,,VEGA,65.66164,12.08392,
41,2017,11399,BOGELVA,,,,KVÆFJORD,68.6565,15.90035,
41,2017,10212,BOGEN,0.16,0.25,0,KRISTIANSUND,63.07767,7.90345,11.7
41,2017,12252,BOGEN MD,,,,MIDSUND,62.69082,6.868767,
41,2017,13209,BOGNØY,0,0,0,RADØY,60.60407,5.076983,12.9
41,2017,13284,BOLLHAUGEN,0.46,1.36,0.09,DØNNA,66.11311,12.48768,11.63
41,2017,13143,BONDEJORDA,0.11,0.87,3.76,LEBESBY,70.81695,27.56372,8
41,2017,10256,BONDØYA,0.1,0.35,0.19,VIKNA,64.8168,10.7427,11.6
41,2017,11248,BONHAMMAREN,0.35,0.38,0,BØ I NORDLAND,68.81738,14.7101,11.8
41,2017,11754,BØØY,,,,RADØY,60.72788,4.8641,
41,2017,37237,BØRFJORD,,,,HASVIK,70.64533,22.69432,
41,2017,15796,BORGARLIFLOT,0.05,0.64,0.25,SULDAL,59.3892,5.924733,12.7
41,2017,20876,BØRØYA,,,,ØKSNES,68.84438,14.85463,
41,2017,11230,BØRØYA SLAKTEMERD,,,,HADSEL,68.57418,14.95887,
41,2017,36417,BORVIKA,,,,HAMMERFEST,70.75667,23.4353,
41,2017,12040,BRANDASKUTA,0.07,1.17,0.03,KVINNHERAD,59.97573,5.909183,13.27
41,2017,34897,BRANDSFJORDEN,0.02,0.15,0.01,ROAN,64.22307,10.27993,12
41,2017,11488,BRATTAVIKA,0.01,0.2,0.08,AUSTEVOLL,60.04412,5.303317,13.6
41,2017,33137,BRATTBERG,,,,GRATANGEN,68.7131,17.4296,
41,2017,13205,BRATTHOLMEN,0,0.1,0.15,SOLUND,61.06838,4.713817,13.64
41,2017,11015,BRATTHOLMEN,0,0.28,0.09,HERØY I NORDLAND,65.90735,12.22097,11.21
41,2017,37157,BRATTVIKA II,,,,FLATANGER,64.38605,10.81572,
41,2017,12594,BREIDVIKA,,,,OSEN,64.29536,10.39748,
41,2017,11574,BREIVIK S,0,0.17,1.09,BØMLO,59.67118,5.31215,13.37
41,2017,28336,BREIVIKA,0.03,0.29,0.03,DØNNA,66.1609,12.68147,11.36
41,2017,15621,BREIVIKA,,,,RØDØY,66.58036,13.01564,
41,2017,32897,BREIVIKA S,0.06,0.23,0,DØNNA,66.1581,12.68202,11.39
41,2017,13765,BREIVIKEN,0.05,0.9,0.35,LURØY,66.46165,12.95803,11.5
41,2017,33237,BREIVOLL,,,,IBESTAD,68.75851,17.15258,
41,2017,36118,BREMNESØYA,0.04,0.04,0.09,SORTLAND,68.82377,15.40022,10.8
41,2017,10223,BREMNESSVAET,0.83,1,0.03,SMØLA,63.39795,8.214317,13.41
41,2017,10674,BRENNELVBUKT,,,,UNJARGGA-NESSEBY,70.01514,29.2673,
41,2017,33637,BRENNEVINSGRUNNEN,,,,FINNØY,59.1833,5.66115,
41,2017,34197,BRENNHOLMEN,1.27,8.72,0.93,HERØY I NORDLAND,65.97871,12.16355,11.4
41,2017,37357,BRENSHOLMEN,,,,TROMSØ,69.57837,17.99427,
41,2017,12466,BRETTINGEN,0.16,0.24,0.01,SMØLA,63.3582,8.237267,13.16
41,2017,35677,BROTTØY,,,,HADSEL,68.4885,15.12592,
41,2017,12237,BRUDEVIKA,0.73,0.85,0.03,VANYLVEN,62.11657,5.420717,13.44
41,2017,13841,BRUNSVIK,0,0.15,0,VÅGSØY,61.91018,5.29085,13.06
41,2017,11435,BRYGGELANDSHOLMANE,0,0,0,HAUGESUND,59.42902,5.096417,12.7
41,2017,31038,BUARØY,0.11,0.73,0.13,SUND,60.22007,5.21455,13.3
41,2017,33537,BUHOLMEN,0,0.01,0,ROAN,64.1569,10.00892,11.8
41,2017,25655,BUHOLMEN,,,,VINDAFJORD,59.56242,5.55465,
41,2017,11543,BUHOLMEN,0.19,1.5,0.4,AUSTEVOLL,60.02092,5.081517,13.2
41,2017,11721,BUKKEHOLMEN,,,,SOLUND,61.09827,4.90485,
41,2017,27976,BUKKHOLMEN,,,,ALSTAHAUG,65.9184,12.24468,
41,2017,12361,BUKKHOLMEN S,,,,FRØYA,63.72368,8.8631,
41,2017,11087,BUKKØYA Ø,0.04,0.15,0.03,RØDØY,66.64097,12.99458,11.5
41,2017,11857,BUKSEVIKA,0,0.03,0.02,FLEKKEFJORD,58.2074,6.63505,13.67
41,2017,22035,BUKTODDEN NØ,0.16,0.09,0,RANA,66.30817,13.43233,11.2
41,2017,11162,BULLATHOLMEN,,,,HADSEL,68.43512,14.84808,
41,2017,12267,BYTTINGSNESET,,,,SKODJE,62.4437,6.566017,
41,2017,37217,DALE,,,,HARSTAD,68.92503,16.3452,
41,2017,12007,DALE II,0,0,0,RENNESØY,59.08215,5.71055,12.9
41,2017,32497,DALJORDA,0,0,0,SORTLAND,68.697,14.96338,11
41,2017,32457,DALSVÅG NV,0,0.01,0.04,KARMØY,59.41082,5.21725,13.3
41,2017,31137,DANIELSNES,0,0,0,LOPPA,70.19172,22.32102,9.6
41,2017,35957,DANIELSVIKA,0.2,0.17,0.13,KVALSUND,70.67102,24.48723,7.8
41,2017,15455,DAUMANNSVIKA,0,0,0,SALTDAL,67.17802,15.40938,9.2
41,2017,37557,DAVATLUFT,0,0,0,ALTA,70.24665,22.88747,8.8
41,2017,10757,DÅVØYA,0.03,0.52,0.4,KARLSØY,70.0722,19.34107,10.5
41,2017,11076,DIGERMULEN,0,0,0,RØDØY,66.67648,13.31687,11.39
41,2017,12659,DIGERNESET,,,,NÆRØY,64.78657,11.72792,
41,2017,13229,DJUPEDALEN,,,,FUSA,60.23087,5.6733,
41,2017,21336,DJUPELEGET,0.24,0.64,1.12,HØYANGER,61.16942,5.807467,13.8
41,2017,14799,DJUPESTALLEN,0.05,0.14,0,TYSNES,60.05873,5.453,13.5
41,2017,10338,DJUPEVIK,,,,KVAM,60.4075,6.356717,
41,2017,10110,DJUPEVIK,0,0.17,0.08,FINNØY,59.1474,5.863783,13.34
41,2017,26595,DJUPEVIKA,0.02,0.19,0.13,TYSNES,60.03582,5.342217,13.2
41,2017,20455,DJUPEVIKA,,,,KVINNHERAD,60.0406,6.010917,
41,2017,25135,DJUPEVIKA,,,,FLEKKEFJORD,58.21965,6.652167,
41,2017,11684,DJUPEVIKA I,,,,GULEN,60.96958,5.168283,
41,2017,37177,DJUPTAREN,,,,VIKNA,64.76917,10.62895,
41,2017,33117,DJUPVIK,,,,SORTLAND,68.60053,15.34487,
41,2017,30097,DJUPVIK,0.41,0.21,0.05,RØDØY,66.73299,13.33115,11.7
41,2017,34018,DOLMA N,,,,NÆRØY,65.02533,11.67602,
41,2017,10505,DRAGNES,0,0,0,HADSEL,68.58348,14.70622,10.93
41,2017,36917,DREVFLESA,0,0,0,ROAN,64.21093,10.11518,12.1
41,2017,35497,DRØNO,0,0.75,0.2,AUSTEVOLL,60.08077,5.192033,14.4
41,2017,32197,DRYNA,0.01,0.04,0.01,MIDSUND,62.6444,6.5568,13.1
41,2017,11644,DUESUND,0.28,0.55,0.28,MASFJORDEN,60.80857,5.295383,10.53
41,2017,35237,DURMÅLSVIKA,,,,LENVIK,69.4334,18.15348,
41,2017,13412,DYPEIDET,0.04,0.03,0.01,ØKSNES,68.82935,14.77602,11.7
41,2017,11381,DYPINGEN,,,,HARSTAD,68.96087,16.53042,
41,2017,21415,DYRHOLMEN,0.16,0.76,0.09,FINNØY,59.28548,5.8583,13.4
41,2017,32117,DYRHOLMEN Ø,,,,FITJAR,59.9332,5.239467,
41,2017,32157,DYRHOLMEN V,0.04,0.3,0.08,FITJAR,59.92823,5.230717,14.1
41,2017,12128,DYRNES,,,,KVINNHERAD,59.71765,5.72205,
41,2017,35697,DYRVIKHOLMAN,,,,HITRA,63.47025,8.679067,
41,2017,12033,DYSVIK,,,,KVAM,60.19102,5.967617,
41,2017,13711,DYVIKA,0.47,2.9,0.4,ASKVOLL,61.47858,5.375967,13.53
41,2017,12109,EBNE,0,0.01,0,ETNE,59.71443,5.8238,12.2
41,2017,14041,EDØYA,0,0.07,0,HITRA,63.65835,8.694417,13.4
41,2017,12574,EDØYA,,,,VIKNA,64.80267,10.9777,
41,2017,30137,EDØYA II,0,0.28,0,HITRA,63.65805,8.683667,13.4
41,2017,30597,EGGESBØNES,,,,HERØY I MØRE OG ROMSDAL,62.32152,5.655833,
41,2017,19335,EIDEMOLLA,,,,LEBESBY,70.67173,27.13395,
41,2017,15456,EIDESBERGET,,,,HØYANGER,61.10512,5.853883,
41,2017,10045,EIDHOLMEN,,,,AUSTEVOLL,60.08808,5.120633,
41,2017,34717,EIDISHOLMAN,,,,VESTVÅGØY,68.13462,13.86722,
41,2017,10819,EIDSNES,,,,ALTA,70.091,22.75517,
41,2017,13870,EIKEBÆRÅNÆ,,,,LINDÅS,60.56343,5.353017,12.5
41,2017,34817,EIME,,,,KVITSØY,59.0872,5.510417,
41,2017,35877,EITERFJORDEN,,,,NÆRØY,64.97163,11.72393,
41,2017,29537,ELDVIKTAREN,0,0,0.03,FLATANGER,64.45464,10.63072,12
41,2017,30917,ELGEN,,,,HARSTAD,68.87695,16.28738,
41,2017,10811,ELVA I ÅRØYSUNDET,0,0,0,ALTA,70.1337,23.33038,7.6
41,2017,33077,ELVENESET,0.52,4.18,3.28,HYLLESTAD,61.206,5.131733,14.4
41,2017,32797,ELVEVIKA NY,,,,MÅSØY,70.9178,25.00625,
41,2017,12236,ENDAL Ø,0.07,1.35,0.13,BREMANGER,61.9076,5.493317,13.44
41,2017,12879,ENDRESETBUKTA,0.17,0.31,0.03,KRISTIANSUND,63.03018,7.71615,12.7
41,2017,11363,ENKELTSTEIN,0.03,0.16,0,IBESTAD,68.7276,16.91047,10.2
41,2017,34577,ENKENESET,0.03,0.08,0.02,KVALSUND,70.56365,24.11907,7.8
41,2017,32677,ESPNESTAREN,0.01,0.11,0.05,FRØYA,63.67802,8.66685,10.6
41,2017,10229,FÆTTEN,,,,HALSA,63.14458,8.459567,
41,2017,37437,FAGERHOLMEN,,,,FRØYA,63.66395,8.603167,
41,2017,24575,FARMANNSØYA,0,0,0.01,ROAN,64.18452,10.1222,11.6
41,2017,31797,FARTØYVIKA,0.01,0.02,0,MÅSØY,70.8286,24.45182,7.9
41,2017,12624,FEØYVIKA,,,,FLATANGER,64.56073,10.91895,
41,2017,31157,FIKSNESET,0.12,0.6,0.7,SUND,60.17688,5.124833,13.5
41,2017,13624,FINNASAND,,,,RENNESØY,59.1037,5.619183,
41,2017,13527,FINNKJERKA,0.11,0.84,0.02,HADSEL,68.33945,15.0358,10.84
41,2017,11353,FINNSTEIN,,,,TORSKEN,69.32917,17.06018,
41,2017,31398,FINNVIK,,,,TROMSØ,69.89297,18.80793,
41,2017,11433,FINNVIKA S,0.04,0.09,0.02,LENVIK,69.50056,17.91902,10.4
41,2017,14796,FISKEFJORDEN,0,0.01,0.02,LØDINGEN,68.52563,16.12367,10.8
41,2017,10803,FJELLBUKT,0.1,0.13,0.79,KVÆNANGEN,69.90455,21.87683,8.48
41,2017,26775,FJØLVÆRET Ø,0.13,0.47,0.15,FRØYA,63.81923,8.636133,13.3
41,2017,32597,FJORDPRAKKEN,0.1,1.25,0,SMØLA,63.25652,7.928067,13.5
41,2017,10544,FLAKSTADVÅG,0.7,0.61,0.15,TORSKEN,69.18692,17.01373,10.8
41,2017,22515,FLAKSTADVÅG HAVN,,,,TORSKEN,69.19186,17.03839,
41,2017,11833,FLÅTEGRUNNEN,0.01,0.44,0.01,FLORA,61.57615,4.807333,12.79
41,2017,19336,FLATHOLMEN,0.03,0.08,0,HAUGESUND,59.4293,5.114483,12.7
41,2017,36138,FLATØYFJORDEN,,,,ROAN,64.27302,10.24623,
41,2017,25835,FLATØYFLU,0.11,0.43,0.16,AUSTEVOLL,60.15603,5.2315,13.4
41,2017,30176,FLEHAMMER,0.42,0.76,0,STEIGEN,67.7292,15.44432,10.8
41,2017,29296,FLEINA,,,,GILDESKÅL,67.0951,13.87522,
41,2017,13494,FLERENGSTRAND,,,,VIKNA,64.91637,11.25113,
41,2017,12407,FLESA,,,,HITRA,63.645,8.879483,
41,2017,11355,FLESEN,0.08,0,0,TORSKEN,69.24668,17.02568,11.5
41,2017,25895,FLORNES,,,,TYSNES,59.89098,5.665983,
41,2017,29876,FLOTAREN,0.24,4.04,0.14,FLATANGER,64.52398,10.76167,11.7
41,2017,21335,FLOTENESET,1.04,3.81,0.42,HØYANGER,61.1936,5.801617,13.4
41,2017,21055,FOLDØY Ø,,,,SULDAL,59.33748,5.987767,
41,2017,35597,FOLLESØY,,,,SKJERVØY,69.91572,20.60142,
41,2017,16939,FORNES,,,,LØDINGEN,68.41048,15.43543,
41,2017,33697,FORRAHAMMAREN,0.08,0.37,0,SNILLFJORD,63.35043,9.23325,13.3
41,2017,19278,FORSÅSTORVIKA,0,0.04,0,TYSFJORD,68.17072,16.15323,11.14
41,2017,10880,FORVIK,,,,VEVELSTAD,65.72318,12.4742,
41,2017,11893,FOSSÅ,0.33,1.03,0.04,HJELMELAND,59.2699,6.14295,13.7
41,2017,26935,FROVÅGNESET,,,,TRANØY,69.06865,17.06145,
41,2017,31437,FUGLÅSEN,0.27,0.61,0,SMØLA,63.44715,8.167767,13.3
41,2017,19115,FUGLØYA S,0.01,0.18,0,SNILLFJORD,63.46068,9.1444,12.5
41,2017,11736,FUREHOLMEN S,0,0.1,0.6,SOLUND,61.05608,4.867017,13.6
41,2017,22015,FURENESET,0.2,2.93,0.53,SOLUND,61.16562,5.052417,13.44
41,2017,11814,FUREVIKA,,,,FJALER,61.30567,5.071783,
41,2017,13669,FURNESET,0.1,0.39,0.05,VESTNES,62.6461,7.101183,13.5
41,2017,13058,FUSAVIKA,0.08,0.42,0.02,FUSA,60.20763,5.613817,13.5
41,2017,10747,FUTNES,0.04,0.07,0.12,KARLSØY,69.95137,19.58787,9.1
41,2017,13874,FYLLINGSNES S,,,,LINDÅS,60.5821,5.4001,
41,2017,12891,GAGNAT,,,,GJEMNES,62.93255,8.0981,
41,2017,31297,GAMMELVEGGEN,,,,NARVIK,68.48615,17.33933,
41,2017,11193,GAMSKJÆRAN,,,,VESTVÅGØY,68.11055,13.74305,
41,2017,12078,GANGDAL,0,0,0,JONDAL,60.21593,6.156667,5.9
41,2017,11667,GARDSKRÅNESET,0.2,1.03,0.13,ØYGARDEN,60.5399,4.904617,14.6
41,2017,10317,GARVIK,,,,ASKVOLL,61.32008,4.978967,
41,2017,13021,GAUSTAD,0.1,0.41,0.03,EIDE,62.9839,7.329667,13.2
41,2017,34217,GAVELN,,,,BRØNNØY,65.51103,12.52398,
41,2017,11198,GEITERØYA I,,,,VESTVÅGØY,68.09026,13.73562,
41,2017,26335,GEITHOLMEN,0.01,0.14,0.02,VIKNA,64.79955,11.02593,11.8
41,2017,31357,GEITRYGGEN,0.04,0.09,0.03,NÆRØY,64.75085,11.18903,11.35
41,2017,34357,GISLØY NØ,,,,ØKSNES,68.97054,15.26478,
41,2017,20897,GISLØY S,,,,ØKSNES,68.94144,15.30745,
41,2017,11530,GISSØYSUNDET S,,,,BØMLO,59.62358,5.160067,
41,2017,24315,GJÆSINGEN,0,0.05,0.05,ÅFJORD,64.11761,9.981417,11.6
41,2017,24196,GJELSØYA,0,0.13,0.01,HITRA,63.48245,8.27885,13.9
41,2017,13036,GJENGANE,0.12,0.44,0.02,AUSTEVOLL,60.07152,5.306383,13.3
41,2017,33617,GJERDE,,,,AURE,63.29962,8.4183,
41,2017,25695,GJERDE,,,,ULSTEIN,62.25998,5.929183,
41,2017,10324,GJERDEVIKSFLUA,0,0,0,FUSA,60.22308,5.641167,13.94
41,2017,12714,GJERDINGA,,,,NÆRØY,64.9464,11.4623,
41,2017,13852,GJERMUNDNES,0.26,0.58,0.14,VESTNES,62.6275,7.192817,13.8
41,2017,20276,GJERMUNDNESHOLMENE,,,,VESTNES,62.63468,7.1385,
41,2017,31717,GJERSET V,1.27,1.6,0.05,HARAM,62.53023,6.428783,13.1
41,2017,11365,GJERVIKA,,,,TRANØY,69.05032,16.88727,
41,2017,10754,GLIMBUKTA,,,,KARLSØY,69.83302,19.36147,
41,2017,10734,GOURTESJOUKA,0,0.01,0.21,GAIVUOTNA-KÅFJORD,69.57835,20.51043,8.5
41,2017,34617,GRÅØYA,,,,SMØLA,63.47635,7.951517,
41,2017,32037,GRASHOLMAN,0,0.17,0.02,LURØY,66.34873,12.77942,11
41,2017,11690,GRASHOLMEN,0.02,0.12,0.08,RADØY,60.59577,5.159717,13.2
41,2017,11907,GRÅTNES,0.04,0.21,0.03,FORSAND,58.87195,6.123217,14
41,2017,11657,GRÅVIKA,0.4,16.25,13.3,GULEN,60.86178,4.934883,13.8
41,2017,32917,GREGUSVIKA,0.02,0.02,0,IBESTAD,68.81875,17.34635,10
41,2017,11559,GRIMSHOLMEN,0.41,1.12,0.2,SVEIO,59.65735,5.404167,13.3
41,2017,11771,GRISHOLMSUNDET,0.05,0.33,0,FEDJE,60.79272,4.693633,14
41,2017,12435,GRØTTINGSØY,0,0.23,0.08,FRØYA,63.87968,8.543767,13.3
41,2017,29096,GRØTTØY,,,,HADSEL,68.44508,14.81938,
41,2017,17177,GRUNNENESET,0.39,0.86,0,BREMANGER,61.89385,5.34825,13.5
41,2017,24615,GRUNNSØYA,,,,FLORA,61.68468,4.915333,
41,2017,33597,GRYTØYRAHOLMEN,0.01,0.35,0.16,FJALER,61.29278,5.014117,13.8
41,2017,12265,GUDMUNDSET,,,,SKODJE,62.45375,6.601283,
41,2017,10318,GULESTØ,0.22,1.64,0.08,BREMANGER,61.75802,5.069883,13.13
41,2017,24735,GULHOLMEN,0.04,0.49,0.12,OS I HORDALAND,60.1282,5.400467,13.5
41,2017,33357,GULLKLAKKEN,0,0,0,SMØLA,63.47922,7.999867,13.1
41,2017,12789,GUNNARØYA,0,0.06,0.01,SNILLFJORD,63.56948,9.467983,13.1
41,2017,32317,GURIØYNA,,,,ASKVOLL,61.29792,4.66045,
41,2017,33757,HÅBRANDEN,0,0,0,FRØYA,63.942,9.133483,12.6
41,2017,29697,HAFSMO,2.3,2.2,0,SNILLFJORD,63.3667,9.245217,12.3
41,2017,19995,HAGAHAMMAREN,,,,AURE,63.13777,8.03015,
41,2017,22095,HÅGARDSNESET,,,,KVINNHERAD,59.9844,5.929967,
41,2017,16755,HAGEBERG,,,,FITJAR,59.94422,5.434733,
41,2017,13949,HAGEBERGAN,,,,SKJERVØY,69.97912,21.02718,
41,2017,13886,HALLARØY V,0,0.03,0.02,FRØYA,63.99812,9.129283,12.8
41,2017,36737,HALLSTEINHAMN I,0.1,0.26,0,BODØ,67.4421,14.71295,11
41,2017,11318,HALLVARDØY,,,,LØDINGEN,68.37497,15.31733,
41,2017,36937,HALLVARDSØYA,,,,TRANØY,69.15137,16.90653,
41,2017,18639,HALSAVIKA,0,0.45,0,TYSVÆR,59.39232,5.883333,14.21
41,2017,12895,HALSBUKTA,,,,TINGVOLL,63.07769,8.143622,
41,2017,18717,HAMMARVIKA,,,,GILDESKÅL,67.13229,14.31318,
41,2017,13592,HAMMER,,,,STEIGEN,67.95877,15.17167,
41,2017,13996,HAMNEFJORD,,,,HAMMERFEST,70.57534,23.03444,
41,2017,10783,HAMNEIDET,,,,NORDREISA,69.93111,20.95543,
41,2017,31577,HANEHOLMEN,,,,GLOPPEN,61.84045,6.10055,
41,2017,31897,HÅØYA,,,,HITRA,63.46562,8.727233,
41,2017,12011,HÅØYA NØ,,,,TYSVÆR,59.29042,5.6765,
41,2017,36617,HARBAKHOLMEN,0.08,0.07,0.02,VIKNA,64.95332,11.19572,12
41,2017,11643,HATLEM Ø,0.13,3.4,3.7,HYLLESTAD,61.20092,5.262117,14.4
41,2017,11511,HATTASTEINEN,0.49,0.79,0.1,BØMLO,59.62627,5.250717,14.5
41,2017,26615,HAUG,,,,KVÆFJORD,68.76693,16.06485,
41,2017,36178,HAUKØYA Ø,0,0.03,0.07,SKJERVØY,70.04613,21.28203,9.8
41,2017,30257,HAUSAN,0.02,0.27,0,HEMNE,63.45838,8.955683,13.1
41,2017,11740,HAVERØY,0.04,0.13,0.01,FJELL,60.40477,4.93995,13.54
41,2017,24035,HÅVIKVÅGEN S,,,,FUSA,60.16983,5.69645,
41,2017,36778,HAVSTEIN SØR,0.06,0.18,0.06,DØNNA,66.16405,12.40077,11
41,2017,13273,HAVSTEINSUNDET,,,,FLATANGER,64.5518,10.88465,
41,2017,30897,HAVSUNDET,,,,BJUGN,63.79953,9.440667,
41,2017,12896,HEGERBERGTRØA,,,,TINGVOLL,62.88393,8.149917,
41,2017,10425,HEGGVIKA,,,,BINDAL,65.12658,12.07198,
41,2017,13503,HEGGVIKA,,,,HITRA,63.6106,9.050733,
41,2017,13838,HEGNES,0.2,2.05,0.1,FJALER,61.35633,5.284667,13.75
41,2017,32737,HELDALEN,,,,VESTVÅGØY,68.10022,13.62033,10.9
41,2017,13782,HELGENESHAMN,,,,HADSEL,68.49158,15.2339,
41,2017,11969,HELGØY,,,,FINNØY,59.22662,5.853783,
41,2017,11783,HELLA,0.01,0.06,0.02,ASKVOLL,61.40663,5.080817,13.3
41,2017,10194,HELLAREN,0.2,0.9,0.4,MIDSUND,62.73583,6.74745,13
41,2017,14679,HELLFJORDEN,,,,BØ I NORDLAND,68.66825,14.80025,
41,2017,12590,HELLIGHOLMEN,,,,VIKNA,64.83839,10.66552,
41,2017,27376,HENDNESET,,,,AVERØY,63.0573,7.5142,
41,2017,11920,HERØY,0.07,0.29,0.05,VINDAFJORD,59.4664,6.0262,14.04
41,2017,22596,HESBYGRUNNEN,0,0.01,0.02,FINNØY,59.19442,5.800183,14.19
41,2017,21957,HESJEHOLMEN,,,,BALLANGEN,68.40231,16.85927,
41,2017,13235,HESSVIK,,,,KVINNHERAD,60.12793,6.149933,13.76
41,2017,18015,HESTABYNESET,,,,TYSNES,59.95363,5.4514,
41,2017,13119,HESTEN,,,,ALTA,70.23785,23.4112,
41,2017,21235,HESTENESET,,,,FLORA,61.60227,5.034633,
41,2017,13006,HESTHOLMEN N,,,,GILDESKÅL,67.14678,14.01653,
41,2017,14136,HESTHOLMEN Ø,0.01,0.11,0.08,KVITSØY,59.06152,5.445683,12.9
41,2017,26815,HESTØY,,,,HERØY I NORDLAND,66.00055,12.26717,
41,2017,34677,HESTØYA,0.07,0.42,0.07,SMØLA,63.3095,8.115567,13.5
41,2017,26955,HETTANESET,,,,VINDAFJORD,59.45863,5.8491,
41,2017,33797,HIDLEKJERRINGA,0,0,0,STRAND,59.06728,5.839383,13.69
41,2017,34017,HILBÅAN,0.25,0.8,0,HITRA,63.6686,8.844717,13.1
41,2017,31177,HILDERKLEIVA,,,,KVÆFJORD,68.78005,16.0978,
41,2017,10300,HILLERSVIK,0.38,0.7,0.04,SVEIO,59.6084,5.311917,13.47
41,2017,10410,HINDHOLMEN,0.03,0.13,0,NÆRØY,64.77393,11.44087,10.6
41,2017,12036,HISDALEN,0,0.06,0.18,KVINNHERAD,60.12612,5.9305,12.91
41,2017,10291,HISKHOLMEN,0.06,4.5,0.6,BØMLO,59.72663,5.145617,14
41,2017,13643,HJARTHOLM,0.03,2.39,0.24,GULEN,61.03512,5.33105,13.3
41,2017,32417,HJARTHOLMOSEN,,,,AUSTEVOLL,60.00458,5.227917,
41,2017,15655,HJARTØY N,,,,NESNA,66.23579,12.70997,
41,2017,13931,HJARTØY Ø,0.42,0.57,0,STEIGEN,67.6562,15.11857,10.8
41,2017,10808,HJELLBERGET,0.01,0.02,0.37,KVÆNANGEN,69.9116,21.59717,8.19
41,2017,10576,HJELNES,,,,KVÆNANGEN,70.06378,21.90345,
41,2017,12483,HJORTHOLMAN,0.21,0.26,0.01,SMØLA,63.45773,7.8561,11.6
41,2017,31257,HJORTHOLMAN 2,,,,SMØLA,63.4621,7.856233,
41,2017,35197,HJORTØYA,0.48,2.16,1.29,VIKNA,64.9848,11.13547,11.3
41,2017,33957,HOFSØYA,,,,FRØYA,63.72217,8.913317,
41,2017,10536,HØGHOLMEN,0.1,0.33,0.03,HARSTAD,69.03159,16.48187,11.19
41,2017,12871,HOGSNES,0.17,0.52,0.03,AVERØY,63.09303,7.675883,13.2
41,2017,30377,HOGSNESET N,0.02,0.29,0,AVERØY,63.09993,7.670267,13.2
41,2017,17176,HOLANDSELV,,,,KVÆFJORD,68.69912,15.97893,
41,2017,11571,HOLEVIK,0,0.2,0.25,BØMLO,59.77658,5.321817,13.6
41,2017,12035,HONDSKÅR,0,0.17,0.23,KVINNHERAD,60.10687,5.939133,12.6
41,2017,12897,HONNHAMMARVIKA,2.05,2.65,1.05,TINGVOLL,62.86337,8.157583,12.4
41,2017,32757,HORGEFJORDEN,0.1,5.1,0.3,AUSTEVOLL,60.10083,5.117067,13.5
41,2017,10518,HORSVÅGEN,,,,HAMARØY,68.02078,15.30238,
41,2017,33218,HOSENØYAN,0.02,0.12,0.02,ÅFJORD,64.08518,9.884683,12
41,2017,13337,HOVDENAKKEN,0.2,0.36,3.01,LEBESBY,70.81175,27.50033,8
41,2017,12890,HØYBUVIKA,0.13,0.36,0.01,GJEMNES,62.9563,8.049217,11.9
41,2017,13784,HØYDALSVIKA,0,0,0.08,ØKSNES,68.93615,15.02237,11.89
41,2017,19939,HØYSTEINEN,0.23,1.23,0.2,KVINNHERAD,60.15742,6.050117,13.38
41,2017,11786,HØYVIKA,,,,ASKVOLL,61.37412,4.963683,
41,2017,21715,HUKEN,,,,LENVIK,69.50706,17.90588,
41,2017,21516,HULLØYHAMN Ø,,,,TYSFJORD,68.05714,16.20447,
41,2017,25235,HUMULEN,,,,VIKNA,64.94605,11.37247,
41,2017,10796,HUNDBERGAN,,,,LOPPA,70.19289,21.81905,
41,2017,32777,HUNDBERGAN,,,,LENVIK,69.55688,17.61055,
41,2017,27856,HUNDHOLMEN,0.08,0,0,FAUSKE,67.26553,15.12518,10
41,2017,11897,HUNDSNES,,,,HJELMELAND,59.22098,6.11915,
41,2017,21016,HUSFJORD,0.03,0.08,0.23,HAMMERFEST,70.54951,22.95588,9
41,2017,34397,HYSENESET,0.42,6.52,3.99,GULEN,60.86148,4.964867,13.5
41,2017,11251,HYSJORDA,2.8,2.48,2.17,BØ I NORDLAND,68.78958,14.627,11.3
41,2017,18936,IGERØY Ø,0.05,0.01,0,VEGA,65.68622,12.13853,11.7
41,2017,27095,IHLHOLMEN,0.08,0.69,0.11,VINDAFJORD,59.7215,5.586633,11.5
41,2017,12397,ILSØYA,,,,FRØYA,63.66418,8.431683,
41,2017,10240,ILSØYA Ø,,,,HITRA,63.65197,8.88687,
